Locatienaam,Eenheid,Plaats,Gemeente,Latitude,Longitude,,Argus,,1,,2,,3,,4
N232 29.5 Schipholwg ri A-veen,Noord-Holland,Badhoevedorp,Haarlemmermeer,47.75511,2.333458,Ja,,x,,x,,,,,
N253 8.0 Nieuwstraat,Zeeland-West-Brabant,Oostburg,Sluis,51.310278,3.457222,Ja,,,,x,,,,x,
N661 Vliss.weg x Zuidb.weg,Zeeland-West-Brabant,Vlissingen,Vlissingen,51.463333,3.5925,Ja,,x,,x,,,,x,
08 Europaweg West ri havens,Zeeland-West-Brabant,Rithem,Vlissingen,51.47167,3.6776,Ja,,x,,x,,,,x,
08 Europaweg West ri Ritthem,Zeeland-West-Brabant,Ritthem,Vlissingen,51.47167,3.6776,Ja,,x,,x,,,,x,
08 Engelandweg ri havens,Zeeland-West-Brabant,Rithem,Vlissingen,51.472441,3.678116,Ja,,x,,x,,,,x,
08 Engelandweg ri N254,Zeeland-West-Brabant,Rithem,Vlissingen,51.472441,3.678116,Ja,,x,,x,,,,x,
08 VLSSNGN Frankrijkwg ri hvns,Zeeland-West-Brabant,Nieuwdorp,Borsele,51.463553,3.730193,Ja,,x,,,,,,,
08 VLSSNGN Frankrijkwg ri N254,Zeeland-West-Brabant,Nieuwdorp,Borsele,51.463493,3.730247,Ja,,x,,,,,,,
08 Europaweg Oost ri Goes,Zeeland-West-Brabant,Nieuwdorp,Borsele,51.448576,3.744656,Ja,,x,,x,,,,x,
08 Europaweg Oost ri havens,Zeeland-West-Brabant,Nieuwdorp,Borsele,51.448576,3.744656,Ja,,x,,x,,,,x,
N62 Li 33.4 Westerschelde,Zeeland-West-Brabant,Borssele,Borssele,51.439495,3.757009,Ja,,x,,x,,x,,x,
N62 Re 33.4 Westerschelde,Zeeland-West-Brabant,Borssele,Borssele,51.439495,3.757009,Ja,,x,,x,,x,,x,
N57 39.9 Brouwersdm S-kerke,Rotterdam,Goedereede,Goedereede,51.761881,3.854405,Ja,,,,x,,,,x,
N57 39.9 Brouwersdm ri Ouddorp,Rotterdam,Goedereede,Goedereede,51.761799,3.854472,Ja,,,,x,,,,x,
N57 PB Brouwersdm ri Ouddorp,Rotterdam,Ouddorp,Goeree-Overflakkee,51.784395,3.869422,Ja,,,,x,,,,x,
N57 PB Brouwersdm ri S-kerke,Rotterdam,Ouddorp,Goeree-Overflakkee,51.784395,3.869422,Ja,,,,x,,,,x,
N256 Deltawg x Nw.Rijkswg,Zeeland-West-Brabant,Goes,Goes,52,3.87075,Ja,,x,,,,,,x,
A256 x Hr.Hendrikskinderendijk,Zeeland-West-Brabant,Goes,Goes,51.505358,3.871003,Ja,,,,x,,,,,
N57 23.9 ri Stellendam,Rotterdam,Goedereede,Goeree-Overflakkee,51.815556,3.981944,Ja,,,,x,,,,x,
N57 Damwg x Visserwg ri Ouddrp,Rotterdam,Goedereede,Goeree-Overflakkee,51.815833,3.983611,Ja,,x,,,,,,x,
N15 Li 18.5 Europaweg HBR,Rotterdam,Rotterdam,Rotterdam,51.95195,4.02229,Ja,,x,,x,,,,x,
N57 Li 18.05 Haringvlietdam,Rotterdam,Stellendam,Goeree-Overflakkee,51.829529,4.045172,Ja,,,,x,,,,x,
N57 Re 18.05 Haringvlietdam,Rotterdam,Stellendam,Goeree-Overflakkee,51.829529,4.045172,Ja,,,,x,,,,x,
N59 25.7 ri Bruinisse,Zeeland-West-Brabant,Oosterland,Schouwen-Duiveland,51.6585,4,Ja,,x,,x,,,,x,
N59 hmp 25.7 ri Oosterland,Zeeland-West-Brabant,Oosterland,Schouwen-Duiveland,51.6586,4,Ja,,x,,x,,,,x,
N15 Re 23.6 Europaweg,Rotterdam,Maasvlakte Rott,Rotterdam,51.933028,4.06743,Ja,,x,,x,,,,x,
N15 Re 25.3 Europaweg HBR,Rotterdam,Rotterdam,Rotterdam,51.932821,4.091762,Ja,,x,,,,x,,x,
N15 Li 25.3 Europaweg HBR,Rotterdam,Rotterdam,Rotterdam,51.932972,4.091794,Ja,,x,,x,,,,x,
07 Noordoever Oostv.meer HBR,Rotterdam,Rotterdam,Rotterdam,51.932302,4.094241,Ja,,x,,x,,,,x,
N218 Brielse Meeroever HBR,Rotterdam,Rotterdam,Rotterdam,51.929996,4.102741,Ja,,x,,x,,,,x,
N15 Re 26.9 Suurhoffbrug,Rotterdam,Rotterdam,Rotterdam,51.938757,4.107404,Ja,,x,,x,,,,x,
N15 Li 27.3 Suurhoffbrug,Rotterdam,Europoort Rotter,Rotterdam,51.940818,4.11164,Ja,,x,,x,,,,x,
07 Markweg HBR,Rotterdam,Rotterdam,Rotterdam,51.95269,4.11484,Ja,,x,,x,,x,,x,
07 Langeweg ri Brielseweg,Rotterdam,Oostvoorne,Westvoorne,51.912415,4.115331,Ja,,x,,x,,,,x,
07 Langeweg ri De Pinnehof,Rotterdam,Oostvoorne,Westvoorne,51.912415,4.115331,Ja,,,,x,,,,x,
07 Langeweg ri Autopark,Rotterdam,Oostvoorne,Westvoorne,51.911084,4.11916,Ja,,x,,x,,,,x,
07 Langeweg ri Westvoorneweg,Rotterdam,Oostvoorne,Westvoorne,51.911084,4.11916,Ja,,,,x,,,,x,
07 Elbeweg HBR,Rotterdam,Rotterdam,Rotterdam,51.938199,4.13706,Ja,,x,,x,,,,x,
07 Dirk v.d. Burgweg HvH,Rotterdam,Hoek van Hollan,Rotterdam,51.991769,4.138184,Ja,,,,x,,,,x,
07 Rijnweg HBR,Rotterdam,Rotterdam,Rotterdam,51.93627,4.150947,Ja,,x,,x,,,,x,
07 Haakweg HvH,Rotterdam,Hoek van Hollan,Rotterdam,51.977179,4.154804,Ja,,x,,x,,,,x,
N223 4.3 Hoeksebaan ri HvH,Rotterdam,Hoek van Hollan,Hoek van Holland,51.95706,4.174606,Ja,,x,,x,,,,x,
N223 4.3 Hoeksebaan ri Wstrlee,Rotterdam,Hoek van Hollan,Hoek van Holland,51.957082,4.174631,Ja,,x,,x,,,,x,
07 Moezelweg x Merwedeweg HB,Rotterdam,Rotterdam,Rotterdam,51.92157,4.179033,Ja,,x,,x,,,,x,
A58 Li 125.2 Rilland,Zeeland-West-Brabant,Rilland,Reimerswaal,51.423355,4.187891,Ja,,,,x,,,,,
A58 Re 125.2 Afrit 31 Rilland,Zeeland-West-Brabant,Rilland,Reimerswaal,51.424342,4.18863,Ja,,,,x,,,,x,
A15 Europaweg Tankstation UIT,Rotterdam,Rotterdam,Rotterdam,51.914319,4.188803,Ja,,x,,x,,,,x,
A15 Europaweg Tankstation IN,Rotterdam,Rotterdam,Rotterdam,51.911618,4.194259,Ja,,x,,x,,,,x,
A58 Re 125.2 Rilland,Zeeland-West-Brabant,Rilland,Reimerswaal,51.424167,4.195833,Ja,,,,x,,,,x,
N57 Li 3.4 HarmsenBrug,Rotterdam,Brielle,Brielle,51.900923,4.209815,Ja,,,,x,,,,x,
N57 Re 3.3 HarmsenBrug,Rotterdam,Brielle,Brielle,51.900923,4.209815,Ja,,x,,x,,,,x,
N656 Oud-Vossemeersedijk,Zeeland-West-Brabant,Oud-Vossemeer,Tholen,51.561667,4.210278,Ja,,,,x,,,,x,
A15 Re 36.2 Thomassentunnel,Rotterdam,Rotterdam,Rotterdam,51.900819,4.217247,Ja,,x,,x,,,,x,
07 Moezelweg x Saarweg HBR,Rotterdam,Rotterdam,Rotterdam,51.902628,4.217321,Ja,,x,,x,,,,x,
N289 27.4 Oude RW ri B op Zm,Zeeland-West-Brabant,Rilland,Reimerswaal,51.427618,4.217876,Ja,,,,x,,,,x,
N289 27.4 Oude RW ri Rilland,Zeeland-West-Brabant,Rilland,Reimerswaal,51.427618,4.217876,Ja,,,,x,,,,x,
07 Neckarweg HBR,Rotterdam,Rotterdam,Rotterdam,51.90003,4.22006,Ja,,x,,x,,,,x,
N213 Elsenwg x Middelbr.wg,Den Haag,Naaldwijk,Westland,51.99175,4.22274,Ja,,x,,,,,,,
N213 Elsenweg ri Maassluis,Den Haag,Naaldwijk,Westland,51.993056,4.222778,Ja,,x,,,,,,,
N218 Gr.Kruisweg x Kanaaldk,Rotterdam,Heenvliet,Nissewaard,51.8665,4.22648,Ja,,,,x,,,,x,
A15 Li 37.1 Calandbrug,Rotterdam,Botlek Rotterdam,Rotterdam,51.901526,4.230257,Ja,,x,,x,,,,x,
A15 Re 37.1 Calandbrug,Rotterdam,Botlek Rotterdam,Rotterdam,51.901526,4.230257,Ja,,x,,x,,,,x,
N218 Gr.Kruisweg x Verdouwhk,Rotterdam,Heenvliet,Nissewaard,51.86065,4.23963,Ja,,,,x,,,,x,
07 Botlekweg na truckpark HBR,Rotterdam,Rotterdam,Rotterdam,51.876145,4.261512,Ja,,x,,x,,,,x,
07 Oliphantweg HBR,Rotterdam,Rotterdam,Rotterdam,51.870513,4.26169,Ja,,x,,x,,,,x,
06 DH Houtrstwg ri Kranenbrgwg,Den Haag,Den Haag,Den Haag,52.092228,4.265046,Ja,,x,,,,,,,
06 DH Houtrstwg ri Pluvierstr.,Den Haag,Den Haag,Den Haag,52.092228,4.265046,Ja,,x,,,,,,,
06 DH Kranenbrgwg ri strand,Den Haag,Den Haag,Den Haag,52.092228,4.265046,Ja,,x,,,,,,,
06 DH Kranenbrgwg ri W.Duinwg,Den Haag,Den Haag,Den Haag,52.092228,4.265046,Ja,,x,,,,,,,
06 Den Haag Dr. Lelykade,Den Haag,Den Haag,Den Haag,52.099431,4.272145,Ja,,x,,,,,,,
06 DH Zeesluisweg ri Domino's,Den Haag,Den Haag,Den Haag,52.101693,4.272228,Ja,,x,,,,,,,
06 DH Zeesluisweg ri Strand,Den Haag,Den Haag,Den Haag,52.101693,4.272228,Ja,,x,,,,,,,
07 Welplaatweg HBR,Rotterdam,Rotterdam,Rotterdam,51.868264,4.278236,Ja,,x,,x,,,,x,
A20 Li 17.3 Maassluis,Rotterdam,Maasland,Midden-Delfland,51.923122,4.278481,Ja,,x,,x,,,,x,
A20 Re 17.3 Maassluis,Rotterdam,Maasland,Midden-Delfland,51.923122,4.278481,Ja,,x,,x,,,,x,
A 4 Re 248.1 Woensdrecht GO,Zeeland-West-Brabant,Woensdrecht,Woensdrecht,51.393611,4.290833,Ja,,,,x,,,,,
A 4 Re 248.1 Woensdrecht GO,Zeeland-West-Brabant,Woensdrecht,Woensdrecht,51.393611,4.290833,Ja,,x,,,,,,,
A 4 Li 248.1 Woensdrecht GO,Zeeland-West-Brabant,Woensdrecht,Woensdrecht,51.393611,4.291111,Ja,,,,x,,,,,
A 4 Li 248.1 Woensdrecht GO,Zeeland-West-Brabant,Woensdrecht,Woensdrecht,51.393611,4.291111,Ja,,x,,,,,,,
06 Den Haag Noordwal,Den Haag,Den Haag,Den Haag,52.079619,4.302666,Ja,,x,,,,,,,
06 Den Haag Torenstr ri kerk,Den Haag,Den Haag,Den Haag,52.079619,4.302666,Ja,,x,,,,,,,
06 Den Haag Noordwal ri Paleis,Den Haag,Den Haag,Den Haag,52.07964,4.303008,Ja,,x,,,,,,,
06 Den Haag Torenstr Elandstr,Den Haag,Den Haag,Den Haag,52.07964,4.303008,Ja,,x,,,,,,,
07 Botlekweg thv Exxon HBR,Rotterdam,Rotterdam,Rotterdam,51.8696,4.303333,Ja,,x,,x,,,,x,
06 Den Haag Prinsestraat,Den Haag,Den Haag,Den Haag,52.080099,4.30396,Ja,,x,,,,,,,
06 Den Haag Prinsestraat OVC,Den Haag,Den Haag,Den Haag,52.080099,4.30396,Ja,,x,,,,,,,
06 Den Haag Pieterstraat,Den Haag,Den Haag,Den Haag,52.079551,4.304061,Ja,,x,,,,,,,
N211 Wippolderln ri Delft,Den Haag,Wateringen,Westland,52.01465,4.30479,Ja,,x,,,,,,,
N211 Wippolderln ri NLDWK,Den Haag,Wateringen,Westland,52.014722,4.306389,Ja,,x,,,,,,,
N218 Li 1.5 Hartelbrug,Rotterdam,Botlek Rotterdam,Rotterdam,51.862067,4.30754,Ja,,,,x,,,,x,
N218 Re 1.5 Hartelbrug,Rotterdam,Botlek Rotterdam,Rotterdam,51.862067,4.30754,Ja,,,,x,,,,x,
06 Brauwweg x Alkemadelaan,Den Haag,'s-Gravenhage,'s-Gravenhage,52.108611,4.309167,Ja,,x,,,,,,,
07 Oude Maasweg HBR,Rotterdam,Rotterdam,Rotterdam,51.86989,4.311731,Ja,,x,,x,,,,x,
06 Brederodelaan x Beatrixlaan,Den Haag,Rijswijk,Rijswijk,52.032778,4.316667,Ja,,x,,,,,,,
06 Waals.weg x Alkemadelaan,Den Haag,'s-Gravenhage,'s-Gravenhage,52.103611,4.317778,Ja,,x,,,,,,,
06 Helfrichsngl x Beatrixlaan,Den Haag,Rijswijk,Rijswijk,52.0325,4.318056,Ja,,x,,,,,,,
06 Ruychrocklaan x Alkemadeln,Den Haag,'s-Gravenhage,'s-Gravenhage,52.101111,4.320556,Ja,,x,,,,,,,
A 4 Li 56.4 Westland,Den Haag,Schipluiden,Midden-Delfland,51.986069,4.327128,Ja,,x,,,,,,,
A 4 Re 56.5 Westland,Den Haag,Schipluiden,Midden-Delfland,51.98515,4.327171,Ja,,x,,,,,,,
07 Billitonln x Marath.w,Rotterdam,Vlaardingen,Vlaardingen,51.91247,4.32746,Ja,,,,x,,,,x,
07 F.deVijfdeln x Marath.wg,Rotterdam,Vlaardingen,Vlaardingen,51.91339,4.32794,Ja,,,,x,,,,x,
07 Oude Maaspad HBR,Rotterdam,Rotterdam,Rotterdam,51.870349,4.32834,Ja,,x,,x,,,,x,
07 Venkelweg HBR,Rotterdam,Rotterdam,Rotterdam,51.873596,4.334114,Ja,,x,,x,,,,x,
N470 Kruithuiswg ri Pijnacker,Den Haag,Delft,Delft,51.984222,4.334503,Ja,,x,,,,,,,
N470 Kruithuiswg Schipluiden,Den Haag,Delft,Delft,51.984643,4.336064,Ja,,x,,,,,,,
06 Bezdnhtswg ri Huis tn Bosch,Den Haag,Den Haag,Den Haag,52.088952,4.336534,Ja,,x,,,,,,,
06 Bezdnhtswg ri New Babylon,Den Haag,Den Haag,Den Haag,52.088952,4.336534,Ja,,x,,,,,,,
06 Bezdnhtswg ri Reigersbrgnwg,Den Haag,Den Haag,Den Haag,52.088952,4.336534,Ja,,x,,,,,,,
07 Spijk.brug ri Hoogvliet,Rotterdam,Hoogvliet,Rotterdam,51.858226,4.337013,Ja,,,,x,,,,x,
07 Spijk.brug ri Spijkenisse,Rotterdam,Hoogvliet,Rotterdam,51.858226,4.337013,Ja,,,,x,,,,x,
A15 Li 47.3 Botlektunnel,Rotterdam,Rotterdam,Rotterdam,51.873293,4.340939,Ja,,x,,x,,,,x,
A15 Re 47.3 Botlektunnel,Rotterdam,Rotterdam,Rotterdam,51.873293,4.340939,Ja,,x,,x,,,,x,
06 Leidsestrtwg ri Benoordhtwg,Den Haag,Den Haag,Den Haag,52.095382,4.341919,Ja,,x,,,,,,,
06 Leidsestrtwg ri Boslaan,Den Haag,Den Haag,Den Haag,52.095382,4.341919,Ja,,x,,,,,,,
06 Leidsestrtwg ri Chateu Blue,Den Haag,Den Haag,Den Haag,52.095382,4.341919,Ja,,x,,,,,,,
06 Leidsestrtwg ri Ln Nw Indie,Den Haag,Den Haag,Den Haag,52.095382,4.341919,Ja,,x,,,,,,,
A20 Li 21.8 Vlaardingen,Rotterdam,Vlaardingen,Vlaardingen,51.920918,4.342022,Ja,,x,,x,,,,x,
06 Bezdnhtswg ri Ln v Nw Indie,Den Haag,Den Haag,Den Haag,52.0915,4.343812,Ja,,x,,,,,,,
06 Bezdnhtswg ri Ambsde Bosnie,Den Haag,Den Haag,Den Haag,52.091363,4.344181,Ja,,x,,,,,,,
06 Bezdnhtswg ri CarelReinrskd,Den Haag,Den Haag,Den Haag,52.091363,4.344181,Ja,,x,,,,,,,
06 Bezdnhtswg ri Esso,Den Haag,Den Haag,Den Haag,52.091363,4.344181,Ja,,x,,,,,,,
06 Bezdnhtswg ri Hofzichtlaan,Den Haag,Den Haag,Den Haag,52.091363,4.344181,Ja,,x,,,,,,,
06 Rijswk Delftwg ri Zuiderwg,Den Haag,Rijswijk,Rijswijk,52.034983,4.345701,Ja,,x,,,,,,,
06 Rijswk Delftwg ri L.Hoornwk,Den Haag,Rijswijk,Rijswijk,52.030383,4.346493,Ja,,x,,,,,,,
A15 Li 47.9 Afrit 17 HVT HBR,Rotterdam,Rotterdam,Rotterdam,51.875187,4.34822,Ja,,x,,x,,,,x,
06 laan v Nw Oosteinde Maanweg,Den Haag,Voorburg,Leidschendam-Voorb,52.069167,4.355833,Ja,,x,,,,,,,
06 Bernh.laan x Nw Oosteinde,Den Haag,Voorburg,Leidschendam-Voorb,52.068808,4.356701,Ja,,x,,,,,,,
07 Vondelingeweg HBR,Rotterdam,Rotterdam,Rotterdam,51.876864,4.35755,Ja,,x,,x,,,,x,
N44 Li 26.8 Wassenaar,Den Haag,Wassenaar,Wassenaar,52.108191,4.363088,Ja,,x,,,,,,,
A 4 Li 70.2 Schiedam,Rotterdam,Schiedam,Schiedam,51.924293,4.36581,Ja,,x,,x,,x,,,
A 4 Re 70.2 Schiedam,Rotterdam,Schiedam,Schiedam,51.924293,4.36581,Ja,,x,,x,,x,,,
06 Bernh.laan x Martinuslaan,Den Haag,Voorburg,Leidschendam-Voorb,52.079444,4.369722,Ja,,x,,,,,,,
N59 48.9 Bosweg ri A29,Rotterdam,Ooltgensplaat,Goeree-Overflakkee,51.701266,4.371775,Ja,,x,,,,,,x,
N59 48.9 Bosweg ri Oude Tonge,Rotterdam,Ooltgensplaat,Goeree-Overflakkee,51.701266,4.371775,Ja,,,,x,,,,x,
N59 48.9 Volkerakdm ri A29,Rotterdam,Ooltgensplaat,Goeree-Overflakkee,51.701266,4.371775,Ja,,x,,,,,,x,
N59 48.9 Volkerakdm ri O.Tonge,Rotterdam,Ooltgensplaat,Goeree-Overflakkee,51.701266,4.371775,Ja,,,,x,,,,x,
A 4 Re 73.8 BA Benelux,Rotterdam,Rotterdam,Rotterdam,51.89422,4.376269,Ja,,x,,x,,x,,,
A 4 Re 73.8 BB Benelux,Rotterdam,Rotterdam,Rotterdam,51.89422,4.376269,Ja,,x,,x,,x,,,
A 4 Li 73.8 BD Benelux,Rotterdam,Rotterdam,Rotterdam,51.894079,4.376668,Ja,,x,,x,,x,,,
A 4 Li 73.8 BE Benelux,Rotterdam,Rotterdam,Rotterdam,51.894079,4.376668,Ja,,x,,x,,x,,,
07 Butaanweg HBR,Rotterdam,Rotterdam,Rotterdam,51.881623,4.381338,Ja,,x,,x,,,,x,
06 Noordsingel x Weigelia,Den Haag,Voorburg,Leidschendam,52.086658,4.383683,Ja,,x,,,,,,,
N289 8.7 Hoogerh. Putte NL UIT,Zeeland-West-Brabant,Putte,Woensdrecht,51.367742,4.388518,Ja,,,,x,,,,x,
N289 8.7 Putte Hoogerh. NL IN,Zeeland-West-Brabant,Putte,Woensdrecht,51.367742,4.388518,Ja,,,,x,,,,x,
07 Oud Pernisserweg HBR,Rotterdam,Rotterdam,Rotterdam,51.880206,4.389329,Ja,,x,,x,,,,x,
A13 Re 12.0 Delft DH-RTD,Den Haag,Delft,Delft,51.989444,4.391667,Ja,,x,,,,,,,
A29 Li 97.5 Haringvlietbrug,Rotterdam,Ooltgensplaat,Goeree-Overflakkee,51.710119,4.397501,Ja,,x,,x,,,,x,
A29 Re 97.5 Haringvlietbrug,Rotterdam,Numansdorp,Numansdorp,51.710119,4.397501,Ja,,x,,x,,,,x,
06 Middenweg x Zoet.rijweg,Den Haag,'s-Gravenhage,'s-Gravenhage,52.07137,4.39831,Ja,,x,,,,,,,
N44 Re 22.6 Wassenaar Raaph.,Den Haag,Wassenaar,Wassenaar,52.136334,4.403824,Ja,,x,,,,,,,
06 Spieringdam x Zoet.rijweg,Den Haag,'s-Gravenhage,'s-Gravenhage,52.061389,4.406111,Ja,,x,,,,,,,
07 Matlingeweg Doenkade,Rotterdam,Rotterdam,Rotterdam,51.946928,4.408761,Ja,,,,x,,,,x,
07 Vlaardingweg ri A20,Rotterdam,Schiedam,Schiedam,51.929155,4.409118,Ja,,,,x,,,,x,
07 Vlaardingweg ri Sp. Polder,Rotterdam,Schiedam,Schiedam,51.929155,4.409118,Ja,,,,x,,,,x,
07 Matlingeweg Schiekade,Rotterdam,Rotterdam,Rotterdam,51.936414,4.411952,Ja,,,,x,,,,x,
N206 Tjalmaweg x Wassen.weg,Den Haag,Katwijk,Katwijk,52.1875,4.418056,Ja,,x,,,,,,,
N206 Prov.weg x Wassen.weg,Den Haag,Katwijk,Katwijk,52.186667,4.418333,Ja,,x,,,,,,,
N206 Prov.wg thv hmp 19.8,Den Haag,Katwijk,Den Haag,52.19777,4.41958,Ja,,x,,,,,,,
07 Vlaardingenwg Sp.br O-schie,Rotterdam,Rotterdam,Rotterdam,51.933425,4.420315,Ja,,,,x,,,,x,
07 Vlaardingenwg Sp.br. Vlaar,Rotterdam,Rotterdam,Rotterdam,51.933425,4.420315,Ja,,,,x,,,,x,
07 Tjalklaan ri A20,Rotterdam,Rotterdam,Rotterdam,51.919589,4.423819,Ja,,,,x,,,,x,
07 Tjalklaan ri Delfshaven,Rotterdam,Rotterdam,Rotterdam,51.919589,4.423819,Ja,,,,x,,,,x,
A13 Li 17.5 Overschie RTD,Rotterdam,Rotterdam,Rotterdam,51.944054,4.424053,Ja,,x,,x,,,,x,
07 Willem Barentszstraat HBR,Rotterdam,Rotterdam,Rotterdam,51.868856,4.424606,Ja,,x,,x,,,,x,
S101 W.Barentszstrt ri Reeweg,Rotterdam,Rotterdam,Albrandswaard,51.868676,4.424884,Ja,,x,,x,,,,x,
A58 Li 95.1 Roosendaal,Zeeland-West-Brabant,Roosendaal,Roosendaal,51.525413,4.426942,Ja,,,,x,,,,,
A17 Li 25.35 Roosendaal,Zeeland-West-Brabant,Roosendaal,Roosendaal,51.525509,4.426973,Ja,,x,,x,,,,x,
KMAR RTD Airportbaan IN,Rotterdam,Rotterdam,Rotterdam,51.94742,4.4284,Ja,,x,,x,,,,,
KMAR RTD Airportbaan IN,Rotterdam,Rotterdam,Rotterdam,51.94742,4.4284,Ja,,x,,,,x,,x,
KMAR RTD Airportbaan UIT,Rotterdam,Rotterdam,Rotterdam,51.94742,4.4284,Ja,,x,,x,,,,,
KMAR RTD Airportbaan UIT,Rotterdam,Rotterdam,Rotterdam,51.94742,4.4284,Ja,,x,,,,x,,x,
07 Vreelustweg ri Delfshaven,Rotterdam,Rotterdam,Rotterdam,51.921285,4.428947,Ja,,,,x,,,,x,
07 Vreelustweg ri Sp. Polder,Rotterdam,Rotterdam,Rotterdam,51.921285,4.428947,Ja,,,,x,,,,x,
S101 Reeweg HBR,Rotterdam,Rotterdam,Rotterdam,51.873324,4.430334,Ja,,x,,x,,,,x,
S101 Reeweg ri W.Barentstrt,Rotterdam,Rotterdam,Rotterdam,51.874961,4.430744,Ja,,x,,x,,,,x,
N492 Gr.Kr.wg x Riv.wg A15,Rotterdam,Rhoon,Albrandswaard,51.86109,4.43075,Ja,,,,x,,,,x,
KMAR RTD Airp. Linatebn West,Rotterdam,Rotterdam,Rotterdam,51.946944,4.430833,Ja,,x,,x,,,,,
KMAR RTD Airp. Linatebn West,Rotterdam,Rotterdam,Rotterdam,51.946944,4.430833,Ja,,x,,,,x,,x,
N492 Gr.Kr.wg x Riv.wg HVT,Rotterdam,Rhoon,Albrandswaard,51.86203,4.43187,Ja,,,,x,,,,x,
07 Waalhavenweg HBR,Rotterdam,Rotterdam,Rotterdam,51.879043,4.432558,Ja,,x,,x,,,,x,
N448 Wijng.laan ri Voorschoten,Den Haag,Voorschoten,Voorschoten,52.12541,4.44279,Ja,,x,,,,,,,
KMAR RTD Airp. Fairoak Oost,Rotterdam,Rotterdam,Rotterdam,51.951278,4.446528,Ja,,x,,x,,,,,
KMAR RTD Airp. Fairoak Oost,Rotterdam,Rotterdam,Rotterdam,51.951278,4.446528,Ja,,x,,,,x,,x,
07 Stadh.weg x v. Aerssenlaan,Rotterdam,Rotterdam,Rotterdam,51.928889,4.454167,Ja,,,,x,,,,x,
07 Jan Olieslagerweg HBR,Rotterdam,Rotterdam,Rotterdam,51.873228,4.45443,Ja,,x,,x,,,,x,
07 Korperweg HBR,Rotterdam,Rotterdam,Rotterdam,51.877278,4.4555,Ja,,x,,x,,,,x,
N471 Hogendorpweg x Maasd.we,Rotterdam,Rotterdam,Rotterdam,51.949444,4.459167,Ja,,,,x,,,,x,
07 Waalhaven noordzijde HBR,Rotterdam,Rotterdam,Rotterdam,51.893685,4.460965,Ja,,x,,x,,,,x,
07 Sluisjesdijk HBR,Rotterdam,Rotterdam,Rotterdam,51.894967,4.461153,Ja,,x,,x,,,,x,
07 Waalhaven oostzijde HBR,Rotterdam,Rotterdam,Rotterdam,51.892803,4.461435,Ja,,x,,x,,,,x,
N447 Voorschoterwg ri Voorburg,Den Haag,Voorschoten,Voorschoten,52.134234,4.463829,Ja,,x,,,,,,,
07 Maastunnel NZ,Rotterdam,Rotterdam,Rotterdam,51.905902,4.466568,Ja,,,,x,,,,x,
07 Maastunnel ZN,Rotterdam,Rotterdam,Rotterdam,51.905902,4.466568,Ja,,,,x,,,,x,
N262 1.5 Essen-Nispen NL IN,Zeeland-West-Brabant,Nispen,Roosendaal,51.481758,4.471988,Ja,,,,x,,x,,x,
N262 1.5 Nispen-Essen NL UIT,Zeeland-West-Brabant,Nispen,Roosendaal,51.481758,4.471988,Ja,,,,x,,x,,x,
N206 x 5Meiln ri Voorschoten,Den Haag,Leiden,Leiden,52.14798,4.47498,Ja,,x,,,,,,,
N206 x 5 Meiln ri Katwijk,Den Haag,Leiden,Leiden,52.1469,4.47531,Ja,,x,,,,,,,
07 Erasmusbrug NZ,Rotterdam,Rotterdam,Rotterdam,51.912061,4.482037,Ja,,,,x,,,,x,
07 Erasmusbrug ZN,Rotterdam,Rotterdam,Rotterdam,51.908696,4.488081,Ja,,,,x,,,,x,
N217 Prov. weg x A29,Rotterdam,Heinenoord,Binnenmaas,51.818174,4.488557,Ja,,x,,x,,,,x,
N217 Prov. weg x A29 RD,Rotterdam,Heinenoord,Binnenmaas,51.818237,4.488653,Ja,,,,x,,,,x,
07 Willemsbrug NZ,Rotterdam,Rotterdam,Rotterdam,51.917316,4.492004,Ja,,,,x,,,,x,
07 Willemsbrug ZN,Rotterdam,Rotterdam,Rotterdam,51.917898,4.492591,Ja,,,,x,,,,x,
N217 x Reedijk ri Puttershoek,Rotterdam,Heinenoord,Binnenmaas,51.81436,4.4942,Ja,,,,x,,,,x,
N217 x Reedijk ri A29,Rotterdam,Heinenoord,Binnenmaas,51.8137,4.4955,Ja,,,,x,,,,x,
07 Vaanweg x V. Hugoweg,Rotterdam,Rotterdam,Rotterdam,52,4.511389,Ja,,,,x,,,,x,
07 Kilweg West ri Ikea,Rotterdam,Barendrecht,Barendrecht,51.84431,4.511569,Ja,,x,,x,,x,,x,
07 Kilweg West ri oprit A29,Rotterdam,Barendrecht,Barendrecht,51.84431,4.511569,Ja,,x,,x,,x,,x,
A29 Li 13.1 Heinenoord,Rotterdam,Barendrecht,Barendrecht,51.839671,4.514719,Ja,,x,,x,,,,x,
A29 Re 13.1 Heinenoord,Rotterdam,Barendrecht,Barendrecht,51.839622,4.514873,Ja,,x,,x,,,,x,
07 Kilweg Oost ri Leedeweg,Rotterdam,Barendrecht,Barendrecht,51.843989,4.519309,Ja,,x,,x,,x,,x,
07 Kilweg Oost ri oprit A29,Rotterdam,Barendrecht,Barendrecht,51.843989,4.519309,Ja,,x,,x,,x,,x,
07 Stadionweg x Burgerh.str,Rotterdam,Rotterdam,Rotterdam,51.89692,4.51972,Ja,,,,x,,,,x,
A58 Li 87.0 Rucphen,Zeeland-West-Brabant,Rucphen,Rucphen,51.546865,4.521795,Ja,,,,x,,,,,
A58 Re 87.0 Rucphen,Zeeland-West-Brabant,Rucphen,Rucphen,51.546863,4.521799,Ja,,,,x,,,,,
07 Bosdreef x Boszoom,Rotterdam,Rotterdam,Rotterdam,51.945278,4.526389,Ja,,,,x,,,,x,
A16 Re Sc 20.1 Brienenoordbrug,Rotterdam,Rotterdam,Rotterdam,51.909864,4.538223,Ja,,x,,x,,x,,x,
A16 Li Pr 20.1 Brienenoordbrug,Rotterdam,Rotterdam,Rotterdam,51.911255,4.538257,Ja,,x,,x,,,,x,
A16 Li Sc 20.1 Brienenoordbrug,Rotterdam,Rotterdam,Rotterdam,51.911255,4.538257,Ja,,x,,x,,,,x,
A16 Re Pr 20.1 Brienenoordbrug,Rotterdam,Rotterdam,Rotterdam,51.909857,4.538413,Ja,,x,,x,,,,x,
A16 Afr 24 Kennedyweg,Rotterdam,Rotterdam,Rotterdam,51.896111,4.540833,Ja,,x,,x,,,,x,
07 Pr. Rooseveltweg Zevenkamp,Rotterdam,Rotterdam,Rotterdam,51.958889,4.548333,Ja,,,,x,,,,x,
07 Pr.Rooseveltweg Ommoord,Rotterdam,Rotterdam,Rotterdam,51.959444,4.549444,Ja,,,,x,,,,x,
07 Hoofdweg ri Cap.weg,Rotterdam,Rotterdam,Rotterdam,51.949167,4.552778,Ja,,x,,x,,,,x,
07 Dierensteinwg Barendrcht IN,Rotterdam,Barendrecht,Barendrecht,51.865456,4.553658,Ja,,x,,x,,x,,x,
07 Dierensteinwg LA ri A15,Rotterdam,Barendrecht,Barendrecht,51.865381,4.553761,Ja,,x,,x,,x,,x,
07 Dierensteinwg Barendrch UIT,Rotterdam,Barendrecht,Barendrecht,51.865326,4.553842,Ja,,x,,x,,x,,x,
07 Alexandrium Hfdwg A16,Rotterdam,Rotterdam,Rotterdam,51.9493,4.55385,Ja,,,,x,,,,x,
08 Langeweg IN MRDK,Zeeland-West-Brabant,Moerdijk,Moerdijk,51.667916,4.553884,Ja,,x,,,,x,,x,
08 Langeweg UIT MRDK,Zeeland-West-Brabant,Moerdijk,Moerdijk,51.667916,4.553884,Ja,,x,,,,x,,x,
07 Verbindingswg ri Waterschap,Rotterdam,Barendrecht,Barendrecht,51.865685,4.555605,Ja,,x,,x,,x,,x,
07 Verbindingsweg LA+RD,Rotterdam,Barendrecht,Barendrecht,51.865713,4.555658,Ja,,x,,x,,x,,x,
07 Verbindingsweg RD+RA,Rotterdam,Barendrecht,Barendrecht,51.865713,4.555658,Ja,,x,,x,,x,,x,
07 Verbindingswg ri Ridderkerk,Rotterdam,Barendrecht,Barendrecht,51.865713,4.555658,Ja,,x,,x,,x,,x,
08 Vogelweg IN en UIT MRDK,Zeeland-West-Brabant,Moerdijk,Moerdijk,51.662139,4.55684,Ja,,x,,,,x,,x,
08 Zuidelijke Randweg IN MRDK,Zeeland-West-Brabant,Moerdijk,Moerdijk,51.657013,4.557471,Ja,,x,,,,x,,x,
08 Zuidelijke Randweg UIT MRDK,Zeeland-West-Brabant,Moerdijk,Moerdijk,51.657013,4.557471,Ja,,x,,,,x,,x,
A20 Zuid Afr.16,Rotterdam,Capelle aan den,Capelle aan den Ijss,52,4.561944,Ja,,,,x,,,,x,
A20 Noord Afr.16,Rotterdam,Capelle aan den,Capelle aan den Ijss,51.956667,4.563333,Ja,,,,x,,,,x,
07 Hoofdweg x Cap.weg,Rotterdam,Capelle aan den,Capelle aan den Ijss,51.950833,4.564167,Ja,,,,x,,,,x,
07 Capelseweg x Hoofdweg,Rotterdam,Capelle aan den,Capelle aan den Ijss,51.950556,4.565278,Ja,,,,x,,,,x,
07 P.Alexanderlaan x Gravenweg,Rotterdam,Capelle aan den,Capelle aan den Ijss,51.926667,4.566944,Ja,,,,x,,,,x,
N201 Zandvoortseln Heemstede,Noord-Holland,Zandvoort,Zandvoort,52.365989,4.570192,Ja,,,,x,,,,,
N201 Zandvoortseln Zandvoort,Noord-Holland,Zandvoort,Zandvoort,52.365989,4.570192,Ja,,,,x,,,,,
N11 Li 5.8 Hazerswoude,Den Haag,Hazerswoude-Ri,Alphen aan den Rijn,52.122014,4.584222,Ja,,x,,,,,,,
N11 Re 5.8 Hazerswoude,Den Haag,Hazerswoude-Ri,Alphen aan den Rijn,52.122014,4.584222,Ja,,x,,,,,,,
07 Kr.IJssel CGRooswg ri brug,Rotterdam,Krimpen a/d IJss,Krimpen a/d IJssel,51.913984,4.585035,Ja,,x,,x,,,,x,
07 Kr.IJssel CGRooswg van brug,Rotterdam,Krimpen a/d IJss,Krimpen a/d IJssel,51.913984,4.585035,Ja,,x,,x,,x,,x,
N206 Vogelenzangseweg ri Lisse,Noord-Holland,Vogelzang,Bloemendaal,52.345707,4.585397,Ja,,,,x,,,,,
N206 Vogelenzangsewg Heemste,Noord-Holland,Vogelzang,Bloemendaal,52.345707,4.585397,Ja,,,,x,,,,,
04 Ferryterm Halkade ri GBR,Noord-Holland,IJmuiden,IJmuiden,52.462494,4.586619,Ja,,x,,,,,,,
04 Ferryterm Halkade ri NL,Noord-Holland,IJmuiden,IJmuiden,52.462494,4.586619,Ja,,x,,,,,,,
08 Keeneweg IN MRDK,Zeeland-West-Brabant,Moerdijk,Moerdijk,51.662382,4.586668,Ja,,x,,,,x,,x,
08 Keeneweg UIT MRDK,Zeeland-West-Brabant,Moerdijk,Moerdijk,51.662382,4.586668,Ja,,x,,,,x,,x,
A12 Li 22.0 Zevenhuizen,Den Haag,Zevenhuizen,Zuidplas,52.023313,4.592147,Ja,,x,,,,,,,
N200 Re 20.2 ri Zandvoort,Noord-Holland,Bloemendaal,Bloemendaal,52.394712,4.595179,Ja,,,,x,,,,,
08  Entree IN MRDK,Zeeland-West-Brabant,Moerdijk,Moerdijk,51.673149,4.607123,Ja,,x,,,,x,,x,
08  Entree UIT MRDK,Zeeland-West-Brabant,Moerdijk,Moerdijk,51.673149,4.607123,Ja,,x,,,,x,,x,
N208 Leidsevrtweg H-stede,Noord-Holland,Haarlem,Haarlem,52.363611,4.61,Ja,,,,x,,,,,
N208 Leidsevrtweg Bloemendl,Noord-Holland,Haarlem,Haarlem,52.363611,4.611944,Ja,,,,x,,,,,
08 Veerdam IN MRDK,Zeeland-West-Brabant,Moerdijk,Moerdijk,51.687207,4.61386,Ja,,x,,,,x,,x,
08 Veerdam UIT MRDK,Zeeland-West-Brabant,Moerdijk,Moerdijk,51.687207,4.61386,Ja,,x,,,,x,,x,
08 Appelweg IN MRDK,Zeeland-West-Brabant,Moerdijk,Moerdijk,51.693489,4.61386,Ja,,x,,,,x,,x,
08 Appelweg UIT MRDK,Zeeland-West-Brabant,Moerdijk,Moerdijk,51.693489,4.61386,Ja,,x,,,,x,,x,
N263 2.0 Wernhout NL IN,Zeeland-West-Brabant,Wernhout,Zundert,51.427309,4.624405,Ja,,,,x,,x,,x,
N263 2.0 Wernhout NL UIT,Zeeland-West-Brabant,Wernhout,Zundert,51.427309,4.624405,Ja,,,,x,,x,,x,
A 4 Li 21.9 Nieuwe Wetering,Den Haag,Nieuwe Weterin,Kaag en Braassem,52.211491,4.625211,Ja,,x,,,,,,,
04 Staalhavenwg ri Nrd Sluiswg,Noord-Holland,Velsen,Velsen,52.473314,4.625821,Ja,,,,x,,,,,
04 Staalhavenwg ri Wencken.str,Noord-Holland,Velsen,Velsen,52.473314,4.625821,Ja,,,,x,,,,,
N217 Li 28.8 Kiltunnel,Rotterdam,Dordrecht,Dordrecht,51.772661,4.629822,Ja,,x,,x,,,,x,
N217 Re 28.8 Kiltunnel,Rotterdam,Dordrecht,Dordrecht,51.772546,4.629831,Ja,,,,x,,,,x,
A44 Li 2.2 Oude Wetering,Noord-Holland,Nieuw-Vennep,Haarlemmermeer,52.231667,4.630278,Ja,,,,x,,,,,
A44 Re 2.2 Oude Wetering,Noord-Holland,Nieuw-Vennep,Haarlemmermeer,52.231667,4.630278,Ja,,,,x,,,,,
A20 Li 43.9 Zuidplas,Den Haag,Nieuwerkerk aan,Zuidplas,51.987122,4.631081,Ja,,x,,,,,,,
A20 Re 43.9 Zuidplas,Den Haag,Nieuwerkerk aan,Zuidplas,51.987122,4.631081,Ja,,x,,,,,,,
A16 Li 44.3 Moerdijkbrug,Rotterdam,Dordrecht,Dordrecht,51.722076,4.633861,Ja,,x,,x,,,,x,
A16 Re 44.3 Moerdijkbrug,Rotterdam,Dordrecht,Dordrecht,51.722076,4.633861,Ja,,x,,x,,,,x,
N208 Delftlaan x Orionweg,Noord-Holland,Haarlem,Haarlem,52.406111,4.633889,Ja,,,,x,,,,,
04 Waterloolaan ri Driehuis,Noord-Holland,Velsen,Velsen,52,4.634402,Ja,,,,x,,,,,
04 Waterloolaan ri IJmuiden,Noord-Holland,Velsen,Velslen,52,4.634402,Ja,,,,x,,,,,
04 Concordiastr. ri Wijkem.weg,Noord-Holland,Velsen,Velsen,52.467397,4.643756,Ja,,,,x,,,,,
04 Concordiastraat ri Pontweg,Noord-Holland,Velsen,Velsen,52.467397,4.643756,Ja,,,,x,,,,,
04 Parkweg ri IJmuiden,Noord-Holland,Velsen,Velsen,52.4623,4.643977,Ja,,,,x,,,,,
04 Parkweg ri Velsen Zuid,Noord-Holland,Velsen,Velsen,52.4623,4.643977,Ja,,,,x,,,,,
07 Mijlweg fietspad A16 Zwijnd,Rotterdam,Dordrecht,Dordrecht,52,4.648333,Ja,,,,x,,,,x,
07 Mijlweg x fietspad over A16,Rotterdam,Dordrecht,Dordrecht,51.795556,4.648333,Ja,,,,x,,,,x,
07 Laan der VN x toerit A16 NZ,Rotterdam,Dordrecht,Dordrecht,51.79912,4.65204,Ja,,,,x,,,,x,
N205 Schipholwg x Amerikawg,Noord-Holland,Haarlem,Haarlem,52.37016,4.6535,Ja,,,,x,,,,,
07 Laan der VN x toerit A16 ZN,Rotterdam,Dordrecht,Dordrecht,51.79752,4.65395,Ja,,,,x,,,,x,
06 Eisenhowerlaan ri Ring West,Den Haag,Alphen aan den,Alphen aan den Rijn,52.145277,4.658333,Ja,,x,,,,,,,
06 Eisenhowerlaan x Slotsngl,Den Haag,Alphen aan den,Alphen aan den Rijn,52.146389,4.658333,Ja,,x,,,,,,,
N207 Henegouwerweg thv 24.1,Den Haag,Waddinxveen,Waddinxveen,52.0404,4.6593,Ja,,x,,,,,,,
N201 Kruisweg ri Leenderbos,Noord-Holland,Hoofddorp,Haarlemmermeer,52.323026,4.659772,Ja,,,,x,,,,,
N201 Re 23.5 Hoofddorp In,Noord-Holland,Hoofddorp,Haarlemmermeer,52.323123,4.65986,Ja,,x,,,,,,,
N201 Li 23.8 Hoofddorp H-stede,Noord-Holland,Hoofddorp,Haarlemmermeer,52.321873,4.662555,Ja,,x,,,,,,,
N201 Kruisweg ri Drie Merenweg,Noord-Holland,Hoofddorp,Haarlemmermeer,52.321928,4.66265,Ja,,,,x,,,,,
N201 x Leenderbos,Noord-Holland,Hoofddorp,Haarlemmermeer,52.3212,4.6639,Ja,,,,x,,,,,
A58 Li 75.2 Etten-Leur,Zeeland-West-Brabant,Etten-Leur,Etten-Leur,51.572368,4.67141,Ja,,,,x,,,,,
A58 Re 75.2 Etten-Leur,Zeeland-West-Brabant,Etten-Leur,Etten-Leur,51.572368,4.67141,Ja,,,,x,,,,,
04 Spoorlaan Hoofdorp,Noord-Holland,Hoofddorp,Haarlemmermeer,52.281899,4.674974,Ja,,x,,x,,,,,
04 Spoorlaan ri Nw Vennep,Noord-Holland,Hoofddorp,Haarlemmermeer,52.281899,4.674974,Ja,,x,,x,,,,,
N207 Oostk.weg x Nassausgl,Den Haag,Alphen aan den,Alphen aan den Rijn,52.120851,4.676752,Ja,,x,,,,,,,
A 4 Li 15.3 Den Ruygen Hoek O,Noord-Holland,Hoofddorp,Haarlemmermeer,52.258104,4.684299,Ja,,x,,x,,,,,
A 4 Re 14.8 Ruygenhoek W,Noord-Holland,Hoofddorp,Haarlemmermeer,52.261667,4.688056,Ja,,x,,x,,,,,
N270 Kasteeltrav x Zuidende,Oost-Brabant,Helmond,Helmond,52.408623,4.701822,Ja,,,,x,,,,,
N270 Kasteeltrav x Zuidende,Oost-Brabant,Helmond,Helmond,52.408623,4.701822,Ja,,,,x,,,,,
A 9 Re 45.6 thv Spaarndam,Noord-Holland,Spaarndam,Haarlemmerliede en,52.408674,4.701948,Ja,,,,x,,,,,
A 9 Li 57.5 ri Amsterdam,Noord-Holland,Heemskerk,Heemskerk,52.504357,4.703865,Ja,,,,x,,,,,
07 Merw.str xN3 ri 's-Gravendl,Rotterdam,Dordrecht,Dordrecht,51.81707,4.70423,Ja,,,,x,,,,x,
N 3 Li 3.2 Dordrecht,Rotterdam,Dordrecht,Dordrecht,51.813889,4.7075,Ja,,,,x,,,,x,
N 3 Re 3.0 Dordrecht C,Rotterdam,Dordrecht,Dordrecht,51.816111,4.707778,Ja,,,,x,,,,x,
07 Merwedestr x N3 ri P-drecht,Rotterdam,Dordrecht,Dordrecht,51.816943,4.708611,Ja,,,,x,,,,x,
07 Baanhoekweg x Kosterstraat,Rotterdam,Dordrecht,Dordrecht,51.81725,4.7116,Ja,,,,x,,,,x,
N232 24.3 Schphlwg ri A-veen,Noord-Holland,Boesingheliede,Haarlemmermeer,52.364755,4.717345,Ja,,x,,x,,,,,
N232 24.3 Schphlwg ri Haarlem,Noord-Holland,Boesingheliede,Haarlemmermeer,52.364755,4.717345,Ja,,x,,x,,,,,
N201 Li 29.9 Hoofddrp H-stede,Noord-Holland,Hoofddorp,Haarlemmermeer,52.292111,4.717566,Ja,,x,,,,,,,
A 9 Re 63.1 Akersloot,Noord-Holland,Akersloot,Castricum,52.551947,4.719309,Ja,,,,x,,,,,
A 4 Re 11.3 Hoofddorp,Noord-Holland,Hoofddorp,Haarlemmermeer,52.285326,4.722075,Ja,,x,,x,,,,,
04 Rijkerstreek ri Schiphol,Noord-Holland,Rozenburg,Aalsmeer,52.288584,4.729066,Ja,,x,,,,,,,
N201 Li 32.2 Rozenburgdreef,Noord-Holland,Hoofddorp,Haarlemmermeer,52.277343,4.730537,Ja,,x,,x,,,,,
N201 Re 32.2 Rozenburgdreef,Noord-Holland,Hoofddorp,Haarlemmermeer,52.277343,4.730537,Ja,,x,,x,,,,,
N 9 Re 79.8 ML Kingwg,Noord-Holland,Alkmaar,Alkmaar,53,4.73184,Ja,,x,,x,,,,,
N 9 Li 80.0 S.Bikoweg,Noord-Holland,Alkmaar,Alkmaar,52.64788,4.73238,Ja,,x,,x,,,,,
KMAR SPL Rijkerstr. P30,Noord-Holland,Schiphol,Haarlemmermeer,52.290833,4.732778,Ja,,x,,,,,,,
KMAR SPL Rijkerstr. P30,Noord-Holland,Schiphol,Haarlemmermeer,52.290833,4.732778,Ja,,x,,x,,,,,
A 5 Li 5.6 Lijnden,Noord-Holland,Lijnden,Haarlemmermeer,52.333727,4.734172,Ja,,x,,x,,,,,
A 5 Re 5.6 Lijnden,Noord-Holland,Lijnden,Haarlemmermeer,52.333727,4.734172,Ja,,x,,x,,,,,
A16 Re 72.2 Hazeldonk GO,Zeeland-West-Brabant,Breda,Breda,51.486667,4.735556,Ja,,,,x,,,,,
A16 Re 72.2 Hazeldonk GO,Zeeland-West-Brabant,Breda,Breda,51.486667,4.735556,Ja,,x,,,,,,,
A16 Li 72.2 Hazeldonk GO,Zeeland-West-Brabant,Breda,Breda,51.486667,4.735833,Ja,,,,x,,,,,
A16 Li 72.2 Hazeldonk GO,Zeeland-West-Brabant,Breda,Breda,51.486667,4.735833,Ja,,x,,,,,,,
KMAR SPL A4 Li 8.9s ri AMS,Noord-Holland,Schiphol,Haarlemmermeer,52.301667,4.744167,Ja,,x,,,,,,,
KMAR SPL A4 Li 8.9s ri AMS,Noord-Holland,Schiphol,Haarlemmermeer,52.301667,4.744167,Ja,,x,,x,,,,,
A16 Li 69.9 Breda NL IN,Zeeland-West-Brabant,Breda,Breda,51.506806,4.744393,Ja,,x,,x,,,,x,
A16 Re 68.5 Breda NL UIT,Zeeland-West-Brabant,Breda,Breda,51.519209,4.745185,Ja,,x,,x,,,,x,
08 Backer Ruebweg Hg Vucht,Zeeland-West-Brabant,Breda,Breda,51.599444,4.7475,Ja,,x,,,,,,,
KMAR SPL Afrit 2 inkeer,Noord-Holland,Schiphol,Haarlemmermeer,52.306389,4.747778,Ja,,x,,,,,,,
KMAR SPL Afrit 2 inkeer,Noord-Holland,Schiphol,Haarlemmermeer,52.306389,4.747778,Ja,,x,,x,,,,,
KMAR SPL Ceintuurbaan Z,Noord-Holland,Schiphol,Haarlemmermeer,52.307156,4.75095,Ja,,x,,,,,,,
KMAR SPL Ceintuurbaan Z,Noord-Holland,Schiphol,Haarlemmermeer,52.307156,4.75095,Ja,,x,,x,,,,,
SPL Ceintuurbaan inkeer,Noord-Holland,Schiphol,Haarlemmermeer,52.306944,4.751944,Ja,,x,,x,,,,,
SPL Ceintuurbaan inkeer,Noord-Holland,Schiphol,Haarlemmermeer,52.306944,4.751944,Ja,,x,,x,,,,,
N200 Li 6.0 ri Amsterdam,Amsterdam,Halfweg,Haarlemmerliede en,52.383889,4.753889,Ja,,x,,x,,,,x,
SPL Citizen M J. Plezierweg,Noord-Holland,Schiphol,Haarlemmermeer,52.309167,5,Ja,,x,,x,,,,,
SPL Citizen M J. Plezierweg,Noord-Holland,Schiphol,Haarlemmermeer,52.309167,5,Ja,,x,,x,,,,,
N200 Re 6.0 RD ri Haarlem,Noord-Holland,Halfweg,Haarlemmerliede en,52.38385,4.7554,Ja,,,,x,,,,,
05 Zonnekruidweg ri Landing ZQ,Amsterdam,Badhoevedorp,Amsterdam,52.321722,4.75567,Ja,,x,,x,,x,,,
05 Zonnekruidwg ri Sloterwg ZQ,Amsterdam,Badhoevedorp,Amsterdam,52.321722,4.75567,Ja,,x,,x,,x,,,
KMAR SPL Sloterweg kr. JCS KM,Noord-Holland,Schiphol,Haarlemmermeer,52.321667,4.755833,Ja,,x,,,,,,,
KMAR SPL Sloterweg kr. JCS KM,Noord-Holland,Schiphol,Haarlemmermeer,52.321667,4.755833,Ja,,x,,x,,,,,
SPL Herbergierstraat,Noord-Holland,Schiphol,Haarlemmermeer,52.305833,4.756389,Ja,,x,,x,,,,,
SPL Herbergierstraat,Noord-Holland,Schiphol,Haarlemmermeer,52.305833,4.756389,Ja,,x,,x,,,,,
KMAR SPL A4 Re 6.6m ri DH,Noord-Holland,Schiphol,Haarlemmermeer,52.320833,4.757778,Ja,,x,,,,,,,
KMAR SPL A4 Re 6.6m ri DH,Noord-Holland,Schiphol,Haarlemmermeer,52.320833,4.757778,Ja,,x,,x,,,,,
05 Sloterwg ri Maximakazern ZQ,Amsterdam,Amsterdam,Amsterdam,52.325533,4.761216,Ja,,,,x,,x,,,
05 Sloterwg ri Tweeduizend ZQ,Amsterdam,Amsterdam,Amsterdam,52.325533,4.761216,Ja,,,,x,,x,,,
KMAR SPL vertrek K-R,Noord-Holland,Schiphol,Haarlemmermeer,52.308333,4.763056,Ja,,x,,,,,,,
KMAR SPL vertrek K-R,Noord-Holland,Schiphol,Haarlemmermeer,52.308333,4.763056,Ja,,x,,x,,,,,
05 Ookmeerweg ri AMS,Amsterdam,Amsterdam,Amsterdam,52.352431,4.768639,Ja,,,,x,,x,,,
05 Ookmeerweg ri Badh.drp,Amsterdam,Amsterdam,Amsterdam,52.352431,4.768639,Ja,,,,x,,x,,,
N232 29.5 Schipholwg ri AMS,Noord-Holland,Badhoevedorp,Haarlemmermeer,52.333631,4.775032,Ja,,x,,x,,,,,
05 AMS Ookmrwg ri Lijnderbrug,Amsterdam,Amsterdam,Amsterdam,52.357853,4.778734,Ja,,,,x,,x,,,
05 AMS Ookmrwg ri rot Osd.Ban,Amsterdam,Amsterdam,Amsterdam,52.357853,4.778734,Ja,,,,x,,x,,,
N232 Li 43.7 Fokkerweg,Noord-Holland,Oude Meer,Oude Meer,52.286859,4.781818,Ja,,x,,x,,,,,
N201 Li 37.5 Waterwolf Hfddrp,Amsterdam,Aalsmeer,Aalsmeer,52.271871,4.786103,Ja,,x,,x,,,,x,
N201 Re 37.5 Waterwolf Aalsmr,Amsterdam,Aalsmeer,Aalsmeer,52.271871,4.786103,Ja,,x,,x,,,,x,
05 Osdorperweg,Amsterdam,Amsterdam,Amsterdam,52.362832,4.786519,Ja,,,,x,,x,,,
KMAR SPL Loevest. RDW bus,Noord-Holland,Schiphol,Haarlemmermeer,52.323056,4.786667,Ja,,x,,,,,,,
KMAR SPL Loevest. RDW bus,Noord-Holland,Schiphol,Haarlemmermeer,52.323056,4.786667,Ja,,x,,x,,,,,
05 AMS Ookmrwg ri rot Powellwg,Amsterdam,Amsterdam,Amsterdam,52.36293,4.787752,Ja,,,,x,,x,,,
05 AMS Ookmrwg ri Sloterpark,Amsterdam,Amsterdam,Amsterdam,52.36293,4.787752,Ja,,,,x,,x,,,
05 OsdorperBan,Amsterdam,Amsterdam,Amsterdam,52.359727,4.788488,Ja,,,,x,,x,,,
05 TussenMeer Richting West,Amsterdam,Amsterdam,Amsterdam,52.356096,4.789228,Ja,,,,x,,x,,,
05 TussenMeer Richting Oost,Amsterdam,Amsterdam,Amsterdam,52.356086,4.790048,Ja,,,,x,,x,,,
04 Nieuwemeerdijk ri AMS,Noord-Holland,Nieuwemeerdijk,Badhoevedorp,52.340738,4.791466,Ja,,x,,x,,,,,
04 Nieuwemeerdijk ri Lijnden,Noord-Holland,Nieuwemeerdijk,Badhoevedorp,52.340738,4.791466,Ja,,x,,x,,,,,
KMAR SPL Loevesteinse randwe,Noord-Holland,Schiphol,Haarlemmermeer,52.324167,4.791667,Ja,,x,,,,,,,
KMAR SPL Loevesteinse randwe,Noord-Holland,Schiphol,Haarlemmermeer,52.324167,4.791667,Ja,,x,,x,,,,,
05 AMS Jarmuiden ri Auto Mak A,Amsterdam,Amsterdam,Amsterdam,52.390467,4.793402,Ja,,x,,x,,x,,,
05 AMS Jarmuiden ri Auto Mak V,Amsterdam,Amsterdam,Amsterdam,52.390467,4.793402,Ja,,x,,x,,x,,,
05 AMS Jarmuiden ri rotonde A,Amsterdam,Amsterdam,Amsterdam,52.390467,4.793402,Ja,,x,,x,,x,,,
N201 x Legmeerdijk,Noord-Holland,Aalsmeer,Aalsmeer,52.26134,4.795713,Ja,,,,x,,,,,
N201 x Legmeerdijk,Noord-Holland,Aalsmeer,Aalsmeer,52.26134,4.795713,Ja,,x,,x,,,,x,
N231 Legmeerdijk x Prov.weg RD,Amsterdam,Amstelveen,Amstelveen,52.26134,4.795713,Ja,,,,x,,,,x,
N232 Li 31.6 ri Badhoevedorp,Noord-Holland,Schiphol,Badhoevedorp,52.320983,4.798534,Ja,,x,,x,,,,,
N232 Re 31.6 ri Amstelveen,Noord-Holland,Schiphol,Badhoevedorp,52.320983,4.798534,Ja,,x,,x,,,,,
05 Australiehvnwg ri Siciliewg,Amsterdam,Amsterdam,Amsterdam,52.409726,4.800577,Ja,,x,,x,,x,,,
05 Australiehvnwg ri Westprtwg,Amsterdam,Amsterdam,Amsterdam,52.409726,4.800577,Ja,,x,,x,,x,,,
A12 Li 38.6 Nieuwerbrug,Den Haag,Nieuwerbrug aan,Gemeente Bodegrav,52.065006,4.80208,Ja,,x,,,,,,,
05 AMS Hornweg ri ADM-terrein,Amsterdam,Amsterdam,Amsterdam,52.410525,4.804993,Ja,,x,,x,,x,,,
05 AMS Hornweg ri Maltaweg,Amsterdam,Amsterdam,Amsterdam,52.410525,4.804993,Ja,,x,,x,,x,,,
N203 x Guisweg ri Zaandam,Noord-Holland,Zaandijk,Zaanstad,52.4714,4.8052,Ja,,,,x,,,,,
N203 x Guisweg ri W-veer,Noord-Holland,Zaandijk,Zaanstad,52.470278,4.805556,Ja,,,,x,,,,,
05 AMS Hornweg ri Basisweg,Amsterdam,Amsterdam,Amsterdam,52.398264,4.806164,Ja,,x,,x,,x,,,
05 AMS Hornweg ri Rhodosweg,Amsterdam,Amsterdam,Amsterdam,52.398264,4.806164,Ja,,x,,x,,x,,,
04 SPL Thermiekstr Canadawg,Noord-Holland,Schiphol,Haarlemmermeer,52.313351,4.807692,Ja,,x,,,,,,,
04 SPL Thermiekstr Sacrestr,Noord-Holland,Schiphol,Haarlemmermeer,52.313351,4.807692,Ja,,x,,,,,,,
04 SPL H.Sacre ri L.Rndwg,Noord-Holland,Schiphol,Haarlemmermeer,52.314481,4.808761,Ja,,x,,,,,,,
04 SPL H.Sacre ri P50,Noord-Holland,Schiphol,Haarlemmermeer,52.314481,4.808761,Ja,,x,,,,,,,
04 SPL H.Sacre ri Canadaweg,Noord-Holland,Schiphol,Haarlemmermeer,52.314152,4.809384,Ja,,x,,,,,,,
04 SPL H.Sacre ri Thermiekstr,Noord-Holland,Schiphol,Haarlemmermeer,52.314152,4.809384,Ja,,x,,,,,,,
N231 Re 24.1Legmrdk Aveen IN,Amsterdam,Amstelveen,Amstelveen,52.277338,4.810926,Ja,,,,x,,,,x,
N231 Li 25.8 Bosrndwg Aveen IN,Amsterdam,Amstelveen,Amstelveen,52.290038,4.823903,Ja,,,,x,,,,x,
05 Plesmanln ri Heemstedestr,Amsterdam,Amsterdam,Amsterdam,52.35129,4.826053,Ja,,,,x,,x,,,
05 AMS JHuizingaln ri Plesmnln,Amsterdam,Amsterdam,Amsterdam,52.351953,4.827177,Ja,,,,x,,x,,,
05 Basisweg ri HBG Supply ZQ,Amsterdam,Amsterdam,Amsterdam,52.392062,4.827583,Ja,,x,,x,,x,,,
05 Basisweg ri Profile ZQ,Amsterdam,Amsterdam,Amsterdam,52.392062,4.827583,Ja,,x,,x,,x,,,
05 AMS JHuizingaln ri Bwmstrln,Amsterdam,Amsterdam,Amsterdam,52.352055,4.827633,Ja,,,,x,,x,,,
A 4 Re 1.3 Amsterdam,Amsterdam,Amsterdam,Amsterdam,52.338788,4.827821,Ja,,,,x,,x,,,
05 Plesmanln ri J.Huizingaln,Amsterdam,Amsterdam,Amsterdam,52.351509,4.829395,Ja,,,,x,,x,,,
A10 20.6 AMS Oprit ri A4,Amsterdam,Amsterdam,Amsterdam,52.339017,4.831287,Ja,,x,,x,,x,,,
05 AMS Noorddmmrwg ri Zetterij,Amsterdam,Amstelveen,Amstelveen,52.290277,4.832011,Ja,,,,x,,x,,,
05 AMS Zetterij ri Noorddmmrwg,Amsterdam,Amstelveen,Amstelveen,52.290277,4.832011,Ja,,,,x,,x,,,
05 Donauweg ri Isarweg ZQ,Amsterdam,Amsterdam,Amsterdam,52.393791,4.83489,Ja,,x,,x,,x,,,
05 Donauweg ri Radarweg ZQ,Amsterdam,Amsterdam,Amsterdam,52.393791,4.83489,Ja,,x,,x,,x,,,
N521 Re 0.3 Bovenk.wg Aveen IN,Amsterdam,Amstelveen,Amstelveen,52.270296,4.836594,Ja,,,,x,,,,x,
05 AMS Brouwrsln ri Nrddamrln,Amsterdam,Amstelveen,Amstelveen,52.292993,4.837048,Ja,,,,x,,x,,,
05 AMS Nrddamrln ri Brouwrsln,Amsterdam,Amstelveen,Amstelveen,52.292993,4.837048,Ja,,,,x,,x,,,
N516 den Uylweg x Wibautstr,Noord-Holland,Zaandam,Zaanstad,52.429444,4.841667,Ja,,,,x,,,,,
05 Vlaardingenlaan,Amsterdam,Amsterdam,Amsterdam,52.346836,4.841893,Ja,,,,x,,x,,,
S106 Afr A10 Re x C. Lelylaan,Amsterdam,Amsterdam,Amsterdam,52.357222,4.843056,Ja,,x,,x,,,,x,
05 Nachtwachtlaan,Amsterdam,Amsterdam,Amsterdam,52.359351,4.843249,Ja,,,,x,,x,,,
05 Hendrikje Stoffelstraat,Amsterdam,Amsterdam,Amsterdam,52.3563,4.84345,Ja,,,,x,,x,,,
05 Heemstedestraat,Amsterdam,Amsterdam,Amsterdam,52.351496,4.843625,Ja,,,,x,,x,,,
05 Postjesweg,Amsterdam,Amsterdam,Amsterdam,52.364163,4.843864,Ja,,,,x,,x,,,
05 Poeldijkstraat,Amsterdam,Amsterdam,Amsterdam,52.350043,4.843947,Ja,,,,x,,x,,,
N516 Re 1.2 Thorb.weg ri A8,Noord-Holland,Zaandam,Zaanstad,52.429922,4.844202,Ja,,,,x,,,,,
05 Lelylaan,Amsterdam,Amsterdam,Amsterdam,52.357877,4.844286,Ja,,,,x,,x,,,
05 Jan van Galenstraat,Amsterdam,Amsterdam,Amsterdam,52.3721,4.844403,Ja,,,,x,,x,,,
05 Jan Evertsenstraat,Amsterdam,Amsterdam,Amsterdam,52.369274,4.844718,Ja,,,,x,,x,,,
05 Bos en Lommerplein,Amsterdam,Amsterdam,Amsterdam,52.377696,4.845056,Ja,,,,x,,x,,,
05 Henk Sneevlietweg,Amsterdam,Amsterdam,Amsterdam,52.345894,4.845361,Ja,,,,x,,x,,,
05 Wiltzanghlaan,Amsterdam,Amsterdam,Amsterdam,52.38173,4.845585,Ja,,,,x,,x,,,
05 Jaagpad ri A10,Amsterdam,Amsterdam,Amsterdam,52.336581,4.846141,Ja,,,,x,,x,,,
05 Jaagpad ri Riekerweg,Amsterdam,Amsterdam,Amsterdam,52.336581,4.846412,Ja,,,,x,,x,,,
05 Haarlemmerweg,Amsterdam,Amsterdam,Amsterdam,52.384926,4.847145,Ja,,,,x,,x,,,
05 Jollenpad ri haven,Amsterdam,Amsterdam,Amsterdam,52.335464,4.851641,Ja,,,,x,,x,,,
05 Jollenpad ri Jachthavenweg,Amsterdam,Amsterdam,Amsterdam,52.335464,4.851641,Ja,,,,x,,x,,,
05 Jachthvnwg ri Pramenpad,Amsterdam,Amsterdam,Amsterdam,52.333133,4.855056,Ja,,,,x,,x,,,
05 Jachthvnwg ri Sportpark,Amsterdam,Amsterdam,Amsterdam,52.333133,4.855056,Ja,,,,x,,x,,,
S108 Amsterdamsewg Aveen IN,Amsterdam,Amstelveen,Amstelveen,52.320708,4.857266,Ja,,,,x,,,,x,
05 Amstelv.wg-Eyckbrg AMS Uit,Amsterdam,Amsterdam,Amsterdam,52.342112,4.857391,Ja,,,,x,,x,,,
A10 29.9 Coen Wissel AMS IN,Amsterdam,Amsterdam,Amsterdam,52.407856,4.857695,Ja,,x,,x,,x,,,
A10 29.9 Coen Wissel AMS UIT,Amsterdam,Amsterdam,Amsterdam,52.407856,4.857695,Ja,,x,,x,,x,,,
A10 Re 29.2 Coentunnel,Amsterdam,Amsterdam,Amsterdam,52.407856,4.857695,Ja,,x,,x,,,,x,
05 Amstelveenseweg,Amsterdam,Amsterdam,Amsterdam,52.341661,4.857801,Ja,,,,x,,x,,,
05 A-veen MvCleveln ri plntsn,Amsterdam,Amstelveen,Amstelveen,52.320588,4.85936,Ja,,,,x,,x,,,
05 A-veen MvCleveln ri Schpnln,Amsterdam,Amstelveen,Amstelveen,52.320588,4.85936,Ja,,,,x,,x,,,
A 8 Re 3.3 Zaandam,Noord-Holland,Oostzaan,Oostzaan,52.439934,4.859503,Ja,,,,x,,,,,
N516 Li 2.5 Thorbeckeweg,Noord-Holland,Zaandam,Zaanstad,52.431779,4.862505,Ja,,,,x,,,,,
05 Nieuwe Hemweg,Amsterdam,Amsterdam,Amsterdam,52.393882,4.863788,Ja,,,,x,,x,,,
A15 Li 89.5 Hardinxveld,Rotterdam,Hardinxveld-Gie,Hardinxveld-Giessen,51.82643,4.867233,Ja,,x,,x,,,,x,
A15 Re 89.5 Hardinxveld,Rotterdam,Hardinxveld-Gie,Hardinxveld-Giessen,51.82643,4.867233,Ja,,x,,x,,,,x,
05 Parnassuswg-De brug AMS In,Amsterdam,Amsterdam,Amsterdam,52.344114,4.867806,Ja,,,,x,,x,,,
05 Parnassuswg-De brug AMS Ui,Amsterdam,Amsterdam,Amsterdam,52.344114,4.867806,Ja,,,,x,,x,,,
S109 Beneluxbaan A-veen IN,Amsterdam,Amstelveen,Amstelveen,52.321388,4.868951,Ja,,,,x,,,,x,
05 Parnassusweg,Amsterdam,Amsterdam,Amsterdam,52.337192,4.869058,Ja,,,,x,,x,,,
05 Parnassuswg-Mahlerln AMS In,Amsterdam,Amsterdam,Amsterdam,52.336932,4.869061,Ja,,,,x,,x,,,
A10 Li 30.7 Coentunnel,Amsterdam,Amsterdam,Amsterdam,52.419453,4.869148,Ja,,x,,x,,x,,,
05 Spaarndammerdijk,Amsterdam,Amsterdam,Amsterdam,52.393001,4.870111,Ja,,,,x,,x,,,
05 Rozengracht-Oost,Amsterdam,Amsterdam,Amsterdam,52.371859,4.874814,Ja,,,,x,,x,,,
05 Tweede H.de Grootstr. Oost,Amsterdam,Amsterdam,Amsterdam,52.373941,4.875973,Ja,,,,x,,x,,,
05 Beethvnstr-Langebrg AMS Uit,Amsterdam,Amsterdam,Amsterdam,52.344303,4.876395,Ja,,,,x,,x,,,
05 Beethvnstr-Langebrg AMS In,Amsterdam,Amsterdam,Amsterdam,52.344338,4.876751,Ja,,,,x,,x,,,
05 Beethovenstraat,Amsterdam,Amsterdam,Amsterdam,52.340353,4.876962,Ja,,,,x,,x,,,
05 Beethvnstr-AkzoNobel AMS IN,Amsterdam,Amsterdam,Amsterdam,52.340356,4.876964,Ja,,,,x,,x,,,
05 Marnixplein-Oost,Amsterdam,Amsterdam,Amsterdam,52.377806,4.878594,Ja,,,,x,,x,,,
05 Koekjesbrug ri Marnixstraat,Amsterdam,Amsterdam,Amsterdam,52.366396,4.878692,Ja,,,,x,,x,,,
05 Koekjesbrug ri Nassaukade,Amsterdam,Amsterdam,Amsterdam,52.366396,4.878692,Ja,,,,x,,x,,,
05 Leidseplein ri Plein,Amsterdam,Amsterdam,Amsterdam,52.363553,4.881972,Ja,,,,x,,x,,,
N201 x Veenweg,Midden-Nederland,Mijdrecht,Mijdrecht,52.215916,4.882328,Ja,,,,x,,x,,,
05 Willemsbrug-Oost,Amsterdam,Amsterdam,Amsterdam,52.38473,4.88264,Ja,,,,x,,x,,,
05 AMS Bloemgr ri Prins.gr OVC,Amsterdam,Amsterdam,Amsterdam,52.375276,4.882983,Ja,,,,x,,x,,,
05 AMS Bloemgr. ri raamprtbr,Amsterdam,Amsterdam,Amsterdam,52.375276,4.882983,Ja,,,,x,,x,,,
N522 Li 10.6 Oranjebn Aveen IN,Amsterdam,Amstelveen,Amstelveen,52.300203,4.885792,Ja,,,,x,,,,x,
05 Museumbrug ri Rijks,Amsterdam,Amsterdam,Amsterdam,52.360815,4.886459,Ja,,,,x,,x,,,
05 Cornelis Douwesweg,Amsterdam,Amsterdam,Amsterdam,52.409112,4.887743,Ja,,,,x,,x,,,
A 9 Re 25.7a Afrit Amstelveen,Amsterdam,Amstelveen,Amstelveen,52.295545,4.888459,Ja,,,,x,,x,,,
05 AMS Brouwersgr ri Past.brg,Amsterdam,Amsterdam,Amsterdam,52.379698,4.889625,Ja,,,,x,,x,,,
05 AMS Brouwersgr ri Prins.gr,Amsterdam,Amsterdam,Amsterdam,52.379698,4.889625,Ja,,,,x,,x,,,
05 AMS Brouwersgr van Past.brg,Amsterdam,Amsterdam,Amsterdam,52.379698,4.889625,Ja,,,,x,,x,,,
05 AMS Brouwersgr van Prins.gr,Amsterdam,Amsterdam,Amsterdam,52.379698,4.889625,Ja,,,,x,,x,,,
05 Weteringln Noord ri Rotonde,Amsterdam,Amsterdam,Amsterdam,52.358574,4.891044,Ja,,,,x,,x,,,
05 Westerdoksdijk ri Barntspln,Amsterdam,Amsterdam,Amsterdam,52.387849,4.892077,Ja,,,,x,,x,,,
05 Westerdoksdijk ri ProRail,Amsterdam,Amsterdam,Amsterdam,52.387849,4.892077,Ja,,,,x,,x,,,
05 Europaboulevard,Amsterdam,Amsterdam,Amsterdam,52.339878,4.892393,Ja,,,,x,,x,,,
N405 Woerden 0.95 ri Woerden,Midden-Nederland,Woerden,Woerden,52.096539,4.894443,Ja,,,,x,,,,x,
05 AMS Pres.Kennedyln ri S109,Amsterdam,Amsterdam,Amsterdam,52.340765,4.895412,Ja,,,,x,,x,,,
05 AMS. Pres.Kennedyln ri S110,Amsterdam,Amsterdam,Amsterdam,52.340465,4.899037,Ja,,,,x,,x,,,
05 Westeinde ri Frederkispln,Amsterdam,Amsterdam,Amsterdam,52.35828,4.899409,Ja,,,,x,,x,,,
05 Oosteinde ri Sarphatistraat,Amsterdam,Amsterdam,Amsterdam,52.358709,4.901511,Ja,,,,x,,x,,,
05 Oosteinde ri Stadhouderskde,Amsterdam,Amsterdam,Amsterdam,52.358709,4.901511,Ja,,,,x,,x,,,
04 LNDSMR Langhsln ri Zdzeeln,Noord-Holland,Landsmeer,Landsmeer,52.427266,4.902449,Ja,,x,,,,,,,
04 LNDSMR Zdzeeln ri Langhsln,Noord-Holland,Landsmeer,Landsmeer,52.427266,4.902449,Ja,,x,,,,,,,
A12 Li 45.85 Oprit vanaf N204,Midden-Nederland,Woerden,Woerden,52.072735,4.902647,Ja,,x,,,,,,,
A12 Re 45.b Oprit vanaf N204,Midden-Nederland,Woerden,Woerden,52.070447,4.903672,Ja,,,,x,,,,x,
04 LNDSMR Langhsln ri Btnhsln,Noord-Holland,Landsmeer,Landsmeer,52.427264,4.905038,Ja,,x,,,,,,,
04 LNDSMR Langhsln ri sportvld,Noord-Holland,Landsmeer,Landsmeer,52.427264,4.905038,Ja,,x,,,,,,,
05 Ridderspoorweg ri kanaal,Amsterdam,Amsterdam,Amsterdam,52.396843,4.905224,Ja,,,,x,,x,,,
05 Ridderspoorweg vanaf kanaal,Amsterdam,Amsterdam,Amsterdam,52.396843,4.905224,Ja,,,,x,,x,,,
05 Papaverweg ri Klaprznwg,Amsterdam,Amsterdam,Amsterdam,52.396893,4.90543,Ja,,,,x,,x,,,
05 Papaverweg vanaf Klaprznwg,Amsterdam,Amsterdam,Amsterdam,52.396893,4.90543,Ja,,,,x,,x,,,
05 Papaverweg ri NDSMplein,Amsterdam,Amsterdam,Amsterdam,52.397067,4.905453,Ja,,,,x,,x,,,
05 Papaverweg vanaf NDSMplein,Amsterdam,Amsterdam,Amsterdam,52.397067,4.905453,Ja,,,,x,,x,,,
05 Riddersprwg ri Klaprznwg,Amsterdam,Amsterdam,Amsterdam,52.397067,4.905453,Ja,,,,x,,x,,,
05 Riddersprwg vanaf Klaprznwg,Amsterdam,Amsterdam,Amsterdam,52.397067,4.905453,Ja,,,,x,,x,,,
03 WRDN Mid.Zee ri Botn.golf,Midden-Nederland,Woerden,Woerden,52.074541,4.907715,Ja,,x,,,,,,,
03 WRDN Mid.Zee ri Zeeweg,Midden-Nederland,Woerden,Woerden,52.074541,4.907715,Ja,,x,,,,,,,
05 Rhijnspoorplein-Noord,Amsterdam,Amsterdam,Amsterdam,52.360984,4.90818,Ja,,,,x,,x,,,
03 WRDN Finse Glf ri Kattegat,Midden-Nederland,Woerden,Woerden,52.075555,4.909976,Ja,,x,,,,,,,
03 WRDN Finse Glf ri Mid.Zee,Midden-Nederland,Woerden,Woerden,52.075555,4.909976,Ja,,x,,,,,,,
05 Plntge Mdrgrcht ri Lepelln,Amsterdam,Amsterdam,Amsterdam,52.364966,4.910697,Ja,,,,x,,x,,,
05 PlntgeMdrgrcht ri Achtgrcht,Amsterdam,Amsterdam,Amsterdam,52.364966,4.910697,Ja,,,,x,,x,,,
05 Roetersstrt ri UVA,Amsterdam,Amsterdam,Amsterdam,52.364966,4.910697,Ja,,,,x,,x,,,
05 Roeterstrt ri Plantg.Kerkln,Amsterdam,Amsterdam,Amsterdam,52.364966,4.910697,Ja,,,,x,,x,,,
05 Nieuwe Utrechtseweg,Amsterdam,Amsterdam,Amsterdam,52.337849,4.91072,Ja,,,,x,,x,,,
05 Nw Achtrgrcht ri Twin Film,Amsterdam,Amsterdam,Amsterdam,52.362962,4.91087,Ja,,,,x,,x,,,
05 Nw Achtrgrcht ri Valcknstrt,Amsterdam,Amsterdam,Amsterdam,52.362962,4.91087,Ja,,,,x,,x,,,
05 Roetersstrt ri Sarphatihuis,Amsterdam,Amsterdam,Amsterdam,52.362962,4.91087,Ja,,,,x,,x,,,
05 Roetersstrt ri Sarphatistrt,Amsterdam,Amsterdam,Amsterdam,52.362962,4.91087,Ja,,,,x,,x,,,
N198 Woerden 54.5 ri A12,Midden-Nederland,Woerden,Woeren,52.097701,4.910885,Ja,,,,x,,,,x,
05 IJtunnel-Zuid,Amsterdam,Amsterdam,Amsterdam,52.386737,4.91462,Ja,,,,x,,x,,,
05 Nw. Leeuwarderweg,Amsterdam,Amsterdam,Amsterdam,52.38674,4.914671,Ja,,,,x,,x,,,
05 KortesGravensanderstr-Noord,Amsterdam,Amsterdam,Amsterdam,52.361964,4.915097,Ja,,,,x,,x,,,
05 Plntg Muidrgrch ri Middenln,Amsterdam,Amsterdam,Amsterdam,52.364147,4.918077,Ja,,,,x,,x,,,
05 Plntge Middnln ri Alexndpln,Amsterdam,Amsterdam,Amsterdam,52.364147,4.918077,Ja,,,,x,,x,,,
05 Plntge Middnln ri Artis,Amsterdam,Amsterdam,Amsterdam,52.364147,4.918077,Ja,,,,x,,x,,,
05 Plntge Middnln ri Muidrgrch,Amsterdam,Amsterdam,Amsterdam,52.364147,4.918077,Ja,,,,x,,x,,,
05 Alexanderpln ri Mauritskade,Amsterdam,Amsterdam,Amsterdam,52.363499,4.919915,Ja,,,,x,,x,,,
05 Alexanderpln ri Sarphatstrt,Amsterdam,Amsterdam,Amsterdam,52.363499,4.919915,Ja,,,,x,,x,,,
05 Spaklerweg,Amsterdam,Amsterdam,Amsterdam,52.333518,4.922968,Ja,,,,x,,x,,,
05 AMS K. Onnesbrug tunnel,Amsterdam,Amsterdam,Amsterdam,52.348809,4.923825,Ja,,,,x,,x,,,
05 Zeeburgrstrt ri Pontanustrt,Amsterdam,Amsterdam,Amsterdam,52.36637,4.926356,Ja,,,,x,,x,,,
05 Zeeburgrstrt ri Sarphatstrt,Amsterdam,Amsterdam,Amsterdam,52.36637,4.926356,Ja,,,,x,,x,,,
05 Piet Heinkade-West,Amsterdam,Amsterdam,Amsterdam,52.375353,4.928175,Ja,,x,,x,,x,,,
05 Cruquiuskade-West,Amsterdam,Amsterdam,Amsterdam,52.3675,4.92818,Ja,,,,x,,x,,,
N260 4.5 Baarle-Turnhout NLUIT,Zeeland-West-Brabant,Baarle-Nassau,Baarle-Nassau,51.424554,4.933388,Ja,,,,x,,,,x,
N260 4.5 Turnhout-Baarle NL IN,Zeeland-West-Brabant,Baarle-Nassau,Baarle-Nassau,51.424554,4.933388,Ja,,,,x,,,,x,
05 Gooiseweg,Amsterdam,Amsterdam,Amsterdam,52.339922,4.937583,Ja,,,,x,,x,,,
05 Rozenburglaan,Amsterdam,Amsterdam,Amsterdam,52.34024,4.937776,Ja,,,,x,,x,,,
N247 Nw Leeuwarderweg x A10,Amsterdam,Amsterdam,Amsterdam,52.40842,4.94029,Ja,,,,x,,,,x,
05 Ertskade ri Steltloper,Amsterdam,Amsterdam,Amsterdam,52.373908,4.941536,Ja,,,,x,,x,,,
05 Ertskade vanaf Steltloper,Amsterdam,Amsterdam,Amsterdam,52.373908,4.941536,Ja,,,,x,,x,,,
05 Panamakade ri Pythonbrug,Amsterdam,Amsterdam,Amsterdam,52.372793,4.942457,Ja,,,,x,,x,,,
05 Panamakade ri v. Eesterenln,Amsterdam,Amsterdam,Amsterdam,52.372793,4.942457,Ja,,,,x,,x,,,
S112 Gooiseweg x Toerit A10,Amsterdam,Duivendrecht,Ouder-Amstel,52.336389,4.943056,Ja,,,,x,,,,x,
05 AMS Randweg ri Diemerdrf,Amsterdam,Amsterdam,Amsterdam,52.333989,4.946323,Ja,,,,x,,x,,,
N235 3.1 Watergang ri PURMER,Noord-Holland,Onbekend,Onbekend,52.4491,4.949064,Ja,,,,x,,,,,
N235 3.1 Watergang ri AMSTERD,Noord-Holland,Onbekend,Onbekend,52.449123,4.949149,Ja,,,,x,,,,,
05 Middenweg,Amsterdam,Amsterdam,Amsterdam,52.341645,4.950202,Ja,,,,x,,x,,,
05 AMS Flierbosdrf ri CZO,Amsterdam,Amsterdam,Amsterdam,52.314441,4.956758,Ja,,,,x,,x,,,
05 AMS Flierbosdrf ri Bijlmdrf,Amsterdam,Amsterdam,Amsterdam,52.31415,4.957017,Ja,,,,x,,x,,,
04 Gorslaan Weteringstr,Noord-Holland,Purmerend,Purmerend,52.499513,4.958473,Ja,,,,x,,,,,
05 Diemen Geritsgl ri Breadz,Amsterdam,Diemen,Diemen,52.329027,4.959047,Ja,,,,x,,x,,,
05 Diemen Rietvldsngl Nienoord,Amsterdam,Diemen,Diemen,52.329027,4.959047,Ja,,,,x,,x,,,
05 Bergwijkdrf ri Bushlt InHln,Amsterdam,Amsterdam,Amsterdam,52.327108,4.960198,Ja,,,,x,,x,,,
05 Bergwijkdrf ri Jan Wolkrsln,Amsterdam,Amsterdam,Amsterdam,52.327108,4.960198,Ja,,,,x,,x,,,
A 2 Re 38.8 Abcoude,Midden-Nederland,Abcoude,De Ronde Venen,52.266155,4.960596,Ja,,,,x,,,,x,
05 Piet Heintunnel,Amsterdam,Amsterdam,Amsterdam,52.372335,4.961688,Ja,,,,x,,x,,,
N204 x Ben.eind ZZ,Midden-Nederland,Benschop,Lopik,52.00616,4.962254,Ja,,,,,,,,,
A 2 Li 38.9 Abcoude,Midden-Nederland,Abcoude,De Ronde Venen,52.266382,4.962345,Ja,,,,x,,,,x,
05 Elsrijkdreef ri Daalwijkdrf,Amsterdam,Amsterdam,Amsterdam,52.327453,4.967964,Ja,,,,x,,x,,,
05 Elsrijkdreef ri Eekholt,Amsterdam,Amsterdam,Amsterdam,52.327453,4.967964,Ja,,,,x,,x,,,
A 7 Li 20.9 Purmerend,Noord-Holland,Noordbeemster,Beemster,52.56508,4.968236,Ja,,,,x,,,,,
A 7 Re 20.9 Purmerend,Noord-Holland,Noordbeemster,Beemster,52.56508,4.968236,Ja,,,,x,,,,,
05  H. de Haanbrg ri jachthvn,Amsterdam,Amsterdam,Amsterdam,52.360921,4.975338,Ja,,,,x,,x,,,
05  H. de Haanbrg van jachthvn,Amsterdam,Amsterdam,Amsterdam,52.360921,4.975338,Ja,,,,x,,x,,,
N99 17.0 Rijkstraatwg ri A7,Noord-Holland,Hippolytushoef,Hollands Kroon,52.910876,4.984016,Ja,,x,,x,,,,,
N99 17.0 Rijkstrtwg ri Wstrlnd,Noord-Holland,Hippolytushoef,Hollands Kroon,52.910876,4.984016,Ja,,x,,x,,,,,
05 W.Veldstrt ri W.Ramstrt,Amsterdam,Amsterdam,Amsterdam,52.293709,4.989399,Ja,,,,x,,x,,,
05 W.Veldstrt ri Wageningdreef,Amsterdam,Amsterdam,Amsterdam,52.293709,4.989399,Ja,,,,x,,x,,,
N247 34.2 Brk in Wtrlnd ri AMS,Noord-Holland,Broek In Waterla,Waterland,52.430807,4.991488,Ja,,,,x,,,,,
N247 34.2 Brk in Wtrlnd ri BIW,Noord-Holland,Broek in Waterla,Broek in Waterland,52.430807,4.991488,Ja,,,,x,,,,,
A27 Li 47.0 Meerkerk,Rotterdam,Meerkerk,Zederik,51.932502,4.996677,Ja,,x,,x,,,,x,
A27 Re 47.0 Meerkerk,Rotterdam,Meerkerk,Zederik,51.932502,4.996677,Ja,,x,,x,,,,x,
N282 Bredaseweg x Zwartv.weg,Zeeland-West-Brabant,Tilburg,Tilburg,51.5606,5.0244,Ja,,x,,x,,,,x,
A 1 Li 10.6 Muiden,Midden-Nederland,Muiden,Gooise Meren,52.330095,5.041192,Ja,,,,x,,,,,
A 1 Li 10.6 Parallelbn Muiden,Midden-Nederland,Muiden,Gooise Meren,52.330095,5.041192,Ja,,,,x,,,,,
A 1 Li 11.1 Muiden,Amsterdam,Muiden,Gooise Meren,52.328333,5.045833,Ja,,,,x,,,,x,
A 1 Re 11.0 Muiden,Amsterdam,Muiden,Gooise Meren,52.328333,5.045833,Ja,,,,x,,,,x,
N630 Goirle - Poppel NL uit,Zeeland-West-Brabant,Goirle,Goirle,51.471921,5.048394,Ja,,,,,,x,,x,
N630 Poppel - Goirle NL in,Zeeland-West-Brabant,Goirle,Goirle,51.471921,5.048394,Ja,,,,,,x,,x,
A12 Re Pr 56.8 Oudenrijn,Midden-Nederland,Utrecht,Utrecht,52.067689,5.060175,Ja,,,,x,,,,x,
A12 Re Sc 56.8 Oudenrijn,Midden-Nederland,Utrecht,Utrecht,52.067689,5.060175,Ja,,,,x,,,,x,
08 Ringbaan W x Bredaseweg,Zeeland-West-Brabant,Tilburg,Tilburg,51.556667,5.063889,Ja,,x,,,,,,x,
03 weg nd Poort x Buizerlaan,Midden-Nederland,Nieuwegein,Nieuwegein,52.0275,5.068056,Ja,,,,x,,x,,,
A 2 Li 72.4 Vianen,Midden-Nederland,Vianen,Vianen,51.990306,5.081879,Ja,,,,x,,,,x,
A 2 Re 72.4 Vianen,Midden-Nederland,Vianen,Vianen,51.990306,5.081879,Ja,,,,x,,,,x,
A27 Re 64.7 Nieuwegein,Midden-Nederland,Houten,Houten,52.003792,5.115572,Ja,,,,x,,x,,,
A27 Li 64.7 Nieuwegein,Midden-Nederland,Houten,Houten,52.0038,5.115575,Ja,,,,x,,x,,,
A12 Li Pr 61.4 Lunetten,Midden-Nederland,Utrecht,Utrecht,52.05634,5.124839,Ja,,,,x,,,,x,
N269 3.5 Hilvarenbeek Reusel,Oost-Brabant,Reusel,Reusel-De Mierden,51.374565,5.154175,Ja,,,,x,,,,,
N269 3.5 Hilvarenbeek Reusel,Oost-Brabant,Reusel,Reusel-De Mierden,51.374565,5.154175,Ja,,,,x,,,,,
N269 3.5 Reusel Hilvarenbeek,Oost-Brabant,Reusel,Reusel-De Mierden,51.374565,5.154175,Ja,,,,x,,,,,
N269 3.5 Reusel Hilvarenbeek,Oost-Brabant,Reusel,Reusel-De Mierden,51.374565,5.154175,Ja,,,,x,,,,,
N525 Larenseweg,Midden-Nederland,Hilversum,Hilversum,52.236666,5,Ja,,x,,x,,,,,
A67 Li 0.2 Bladel GO NL UIT,Oost-Brabant,Bladel,Bladel,51.319167,5.209444,Ja,,,,x,,,,,
A67 Li 0.2 Bladel GO NL UIT,Oost-Brabant,Bladel,Bladel,51.319167,5.209444,Ja,,,,x,,,,,
A67 Li 0.2 Bladel GO NL UIT,Oost-Brabant,Bladel,Bladel,51.319167,5.209444,Ja,,x,,,,,,,
A67 Re 0.2 Bladel GO NL IN,Oost-Brabant,Bladel,Bladel,51.319167,5.209722,Ja,,,,x,,,,,
A67 Re 0.2 Bladel GO NL IN,Oost-Brabant,Bladel,Bladel,51.319167,5.209722,Ja,,,,x,,,,,
A67 Re 0.2 Bladel GO NL IN,Oost-Brabant,Bladel,Bladel,51.319167,5.209722,Ja,,x,,,,,,,
09 Deutersestraat ri Cromvoirt,Oost-Brabant,Cromvoirt,Cromvoirt,51.669264,5.234701,Ja,,x,,,,,,,
09 Deutersestraat ri Cromvoirt,Oost-Brabant,Cromvoirt,Cromvoirt,51.669264,5.234701,Ja,,x,,,,,,,
09 Deutersestraat ri Den Bosch,Oost-Brabant,Cromvoirt,Cromvoirt,51.669264,5.234701,Ja,,x,,,,,,,
09 Deutersestraat ri Den Bosch,Oost-Brabant,Cromvoirt,Cromvoirt,51.669264,5.234701,Ja,,x,,,,,,,
N65 Li 8.0 ri Vught,Oost-Brabant,Helvoirt,Helvoirt,51.635767,5.248454,Ja,,x,,,,,,,
N65 Li 8.0 ri Vught,Oost-Brabant,Helvoirt,Helvoirt,51.635767,5.248454,Ja,,x,,,,,,,
N65 Re 8.0 ri Helvoirt,Oost-Brabant,Helvoirt,Helvoirt,51.635767,5.248454,Ja,,x,,,,,,,
N65 Re 8.0 ri Helvoirt,Oost-Brabant,Helvoirt,Helvoirt,51.635767,5.248454,Ja,,x,,,,,,,
09 Vught Pepereind ri Cromvrt,Oost-Brabant,Vught,Vught,51.656405,5.253748,Ja,,x,,,,,,,
09 Vught Pepereind ri Cromvrt,Oost-Brabant,Vught,Vught,51.656405,5.253748,Ja,,x,,,,,,,
09 Vught Pepereind ri Vught,Oost-Brabant,Vught,Vught,51.656405,5.253748,Ja,,x,,,,,,,
09 Vught Pepereind ri Vught,Oost-Brabant,Vught,Vught,51.656405,5.253748,Ja,,x,,,,,,,
N702 x Pldrdrf ri Lelystad,Midden-Nederland,Almere,Almere,52.402223,5.258586,Ja,,,,x,,x,,,
N702 x Gr. Vrtwg ri Almere Std,Midden-Nederland,Almere,Almere,52.40278,5.25962,Ja,,,,x,,x,,,
A12 Li 70.9 Driebergen,Landelijke Eenheid,Driebergen,Driebergen,52.059074,5.259861,Ja,,x,,,,,,,
A12 Re 71.1 Afrit Driebergen,Landelijke Eenheid,Driebergen,Driebergen,52.05954,5.263599,Ja,,x,,,,,,,
03 3B Zeist Hfdstr ri A12,Landelijke Eenheid,Driebergen Zeist,Driebergen,52.062303,5.264939,,Ja,,x,,,,,,
03 3B Zeist Hfdstr ri Zeist,Landelijke Eenheid,Driebergen Zeist,Driebergen,52.062303,5.264939,,Ja,,x,,,,,,
09 Vught Boslaan ri Cromvrt,Oost-Brabant,Vught,Vught,51.65249,5.265746,Ja,,x,,,,,,,
09 Vught Boslaan ri Cromvrt,Oost-Brabant,Vught,Vught,51.65249,5.265746,Ja,,x,,,,,,,
09 Vught Boslaan ri Vught,Oost-Brabant,Vught,Vught,51.65249,5.265746,Ja,,x,,,,,,,
09 Vught Boslaan ri Vught,Oost-Brabant,Vught,Vught,51.65249,5.265746,Ja,,x,,,,,,,
03 Driebergen De Woerd IN,Landelijke Eenheid,Driebergen Rijse,Driebergen,52.057935,5.266878,,Ja,,x,,,,,,
03 Driebergen De Woerd UIT,Landelijke Eenheid,Driebergen Rijse,Driebergen,52.057935,5.266878,,Ja,,x,,,,,,
A12 Li 71.8 Afrit Driebergen,Landelijke Eenheid,Driebergen,Driebergen,52.062187,5.26804,Ja,,x,,,,,,,
03 Driebergen Hfdstr ri A12,Landelijke Eenheid,Driebergen Rijse,Driebergen,52.059942,5.269046,,Ja,,x,,,,,,
03 Driebergen Hfdstr ri Centr.,Landelijke Eenheid,Driebergen Rijse,Driebergen,52.059942,5.269046,,Ja,,x,,,,,,
N307 49.3 Dijk Enkhzn-Lelystad,Noord-Holland,Enkhuizen,Enkhuizen,52.694514,5.279222,Ja,,,,x,,,,,
N307 49.3 Dijk Lelystad-Enkhzn,Noord-Holland,Enkhuizen,Enkhuizen,52.694514,5.279222,Ja,,,,x,,,,,
A12 Re 72.8 Driebergen,Landelijke Eenheid,Driebergen,Driebergen,52.064909,5.28542,Ja,,x,,,,,,,
A65 Li 4.2 ri A2,Oost-Brabant,Vught,Vught,51.657824,5.288679,Ja,,,,x,,,,,
A65 Li 4.2 ri A2,Oost-Brabant,Vught,Vught,51.657824,5.288679,Ja,,,,x,,,,,
A65 Re 4.2 ri Helvoirt,Oost-Brabant,Vught,Vught,51.658324,5.288831,Ja,,x,,,,,,,
A65 Re 4.2 ri Helvoirt,Oost-Brabant,Vught,Vught,51.658324,5.288831,Ja,,x,,,,,,,
09 Orthenseweg x Citadellaan,Oost-Brabant,s-Hertogenbosc,s-Hertogenbosch,51.697499,5.303333,Ja,,x,,,,,,,
09 Orthenseweg x Citadellaan,Oost-Brabant,s-Hertogenbosc,s-Hertogenbosch,51.697499,5.303333,Ja,,x,,,,,,,
A15 Li 121.1 Geldermalsen,Oost-Nederland,Geldermalsen,Geldermalsen,51.86154,5.310726,Ja,,x,,x,,x,,x,
A15 Re 121.1 Geldermalsen,Oost-Nederland,Deil,Geldermalsen,51.861427,5.310785,Ja,,x,,x,,x,,x,
09 DB Bruistnsngl X Zndzgrstrt,Oost-Brabant,Den Bosch,Den Bosch,51.702607,5.318752,Ja,,x,,,,,,,
09 DB Bruistnsngl X Zndzgrstrt,Oost-Brabant,Den Bosch,Den Bosch,51.702607,5.318752,Ja,,x,,,,,,,
09 Bruistensingel x Herv.baan,Oost-Brabant,s-Hertogenbosc,s-Hertogenbosch,51.701388,5.319444,Ja,,x,,,,,,,
09 Bruistensingel x Herv.baan,Oost-Brabant,s-Hertogenbosc,s-Hertogenbosch,51.701388,5.319444,Ja,,x,,,,,,,
09 Bruistensngl x Herv.baan LA,Oost-Brabant,s-Hertogenbosc,s-Hertogenbosch,51.70138,5.319506,Ja,,x,,,,,,,
09 Bruistensngl x Herv.baan LA,Oost-Brabant,s-Hertogenbosc,s-Hertogenbosch,51.70138,5.319506,Ja,,x,,,,,,,
09 DB Lagelandstr x Graafsewg,Oost-Brabant,Den Bosch,Den Bosch,51.693845,5.322036,Ja,,x,,,,,,,
09 DB Lagelandstr x Graafsewg,Oost-Brabant,Den Bosch,Den Bosch,51.693845,5.322036,Ja,,x,,,,,,,
A 7 Li 96.5 Kornwerderzand,Noord-Nederland,Kornwerderzand,Súdwest-Fryslân,53.073508,5.331399,Ja,,x,,x,,x,,,
A 7 Re 96.5 Kornwerderzand,Noord-Nederland,Kornwerderzand,Súdwest-Fryslân,53.073508,5.331399,Ja,,x,,x,,x,,,
09 A.Mulderweg ri Luchthvnwg A,Oost-Brabant,Eindhoven,Eindhoven,51.450536,5.394281,Ja,,x,,,,,,,
09 A.Mulderweg ri Luchthvnwg A,Oost-Brabant,Eindhoven,Eindhoven,51.450536,5.394281,Ja,,x,,,,,,,
09 A.Mulderweg ri vliegbasis V,Oost-Brabant,Eindhoven,Eindhoven,51.450536,5.394281,Ja,,x,,,,,,,
09 A.Mulderweg ri vliegbasis V,Oost-Brabant,Eindhoven,Eindhoven,51.450536,5.394281,Ja,,x,,,,,,,
09 Luchthavenweg ri Landsard,Oost-Brabant,Eindhoven,Eindhoven,51.459784,5.396484,Ja,,x,,,,,,,
09 Luchthavenweg ri Landsard,Oost-Brabant,Eindhoven,Eindhoven,51.459784,5.396484,Ja,,x,,,,,,,
09 Luchthvnwg Fietspd Inkomend,Oost-Brabant,Eindhoven,Eindhoven,51.459784,5.396484,Ja,,x,,,,,,,
09 Luchthvnwg Fietspd Inkomend,Oost-Brabant,Eindhoven,Eindhoven,51.459784,5.396484,Ja,,x,,,,,,,
09 Luchthvnwg Fietspd Uitgaand,Oost-Brabant,Eindhoven,Eindhoven,51.459784,5.396484,Ja,,x,,,,,,,
09 Luchthvnwg Fietspd Uitgaand,Oost-Brabant,Eindhoven,Eindhoven,51.459784,5.396484,Ja,,x,,,,,,,
09 Luchthvnwg Landsard BUS Ink,Oost-Brabant,Eindhoven,Eindhoven,51.459784,5.396484,Ja,,x,,,,,,,
09 Luchthvnwg Landsard BUS Ink,Oost-Brabant,Eindhoven,Eindhoven,51.459784,5.396484,Ja,,x,,,,,,,
09 Luchthvnwg Landsard BUS Uit,Oost-Brabant,Eindhoven,Eindhoven,51.459784,5.396484,Ja,,x,,,,,,,
09 Luchthvnwg Landsard BUS Uit,Oost-Brabant,Eindhoven,Eindhoven,51.459784,5.396484,Ja,,x,,,,,,,
09 Luchthvnwg Landsard Inkmnd,Oost-Brabant,Eindhoven,Eindhoven,51.459784,5.396484,Ja,,x,,,,,,,
09 Luchthvnwg Landsard Inkmnd,Oost-Brabant,Eindhoven,Eindhoven,51.459784,5.396484,Ja,,x,,,,,,,
09 Luchthvnwg Landsrd RD LA R,Oost-Brabant,Eindhoven,Eindhoven,51.459784,5.396484,Ja,,x,,,,,,,
09 Luchthvnwg Landsrd RD LA R,Oost-Brabant,Eindhoven,Eindhoven,51.459784,5.396484,Ja,,x,,,,,,,
09 Luchthvnwg RD RA LA Contra,Oost-Brabant,Eindhoven,Eindhoven,51.459784,5.396484,Ja,,x,,,,,,,
09 Luchthvnwg RD RA LA Contra,Oost-Brabant,Eindhoven,Eindhoven,51.459784,5.396484,Ja,,x,,,,,,,
09 Luchthvnwg Busbn ri Meerhvn,Oost-Brabant,Eindhoven,Eindhoven,51.455384,5.398596,Ja,,x,,,,,,,
09 Luchthvnwg Busbn ri Meerhvn,Oost-Brabant,Eindhoven,Eindhoven,51.455384,5.398596,Ja,,x,,,,,,,
09 Luchthvnwg Flight Forum,Oost-Brabant,Eindhoven,Eindhoven,51.455384,5.398596,Ja,,x,,,,,,,
09 Luchthvnwg Flight Forum,Oost-Brabant,Eindhoven,Eindhoven,51.455384,5.398596,Ja,,x,,,,,,,
09 Luchthvwg Busbn Meerhvn ink,Oost-Brabant,Eindhoven,Eindhoven,51.455384,5.398596,Ja,,x,,,,,,,
09 Luchthvwg Busbn Meerhvn ink,Oost-Brabant,Eindhoven,Eindhoven,51.455384,5.398596,Ja,,x,,,,,,,
09 Luchthvnwg ri Flight Form V,Oost-Brabant,Eindhoven,Eindhoven,51.45514,5.398818,Ja,,x,,,,,,,
09 Luchthvnwg ri Flight Form V,Oost-Brabant,Eindhoven,Eindhoven,51.45514,5.398818,Ja,,x,,,,,,,
09 A.Fokkerweg Airport In,Oost-Brabant,Eindhoven,Eindhoven,51.456122,5.400638,Ja,,x,,,,,,,
09 A.Fokkerweg Airport In,Oost-Brabant,Eindhoven,Eindhoven,51.456122,5.400638,Ja,,x,,,,,,,
01 Westerzeedijk ri Kimswerdln,Noord-Nederland,Kimswerd,Súdwest Fryslân,53.146117,5.41198,,Ja,,x,,,,,,
01 Westerzeedijk ri Willmshavn,Noord-Nederland,Kimswerd,Súdwest Fryslân,53.146117,5.41198,,Ja,,x,,,,,,
N390 1.98 Harlingen ri A31,Noord-Nederland,Harlingen,Harlingen,53.184798,5.433411,Ja,,x,,x,,,,x,
N390 1.98 Harlingen ri havens,Noord-Nederland,Harlingen,Harlingen,53.184798,5.433411,Ja,,x,,x,,,,x,
A28 Li 32.4 Amersfoort N,Oost-Nederland,Nijkerk,Nijkerk,52.216492,5.448738,Ja,,x,,x,,x,,x,
A28 Re 32.4 Amersfoort N,Oost-Nederland,Nijkerk,Nijkerk,52.216492,5.448738,Ja,,x,,x,,x,,x,
09 Botenlaan x Strijpsestr,Oost-Brabant,Eindhoven,Eindhoven,51.439167,5.450556,Ja,,x,,,,,,,
09 Botenlaan x Strijpsestr,Oost-Brabant,Eindhoven,Eindhoven,51.439167,5.450556,Ja,,x,,,,,,,
09 Boschdijk x Marconilaan,Oost-Brabant,Eindhoven,Eindhoven,51.451667,5.463611,Ja,,x,,,,,,,
09 Boschdijk x Marconilaan,Oost-Brabant,Eindhoven,Eindhoven,51.451667,5.463611,Ja,,x,,,,,,,
A 1 Li 48.7 Hoevelaken O,Oost-Nederland,Amersfoort,Amersfoort,52.165143,5.483406,Ja,,x,,x,,x,,x,
A 1 Li 48.7 Hoevelaken O,Midden-Nederland,Amersfoort,Amersfoort,52.165143,5.483406,Ja,,,,x,,,,,
A 1 Re 48.7 Hoevelaken O,Oost-Nederland,Amersfoort,Amersfoort,52.165143,5.483406,Ja,,x,,x,,x,,x,
A 1 Re 48.7 Hoevelaken O,Midden-Nederland,Amersfoort,Amersfoort,52.165143,5.483406,Ja,,,,x,,,,,
09 Kennedylaan 95.8 ri A50,Oost-Brabant,Eindhoven,Eindhoven,51.492221,5.48381,Ja,,x,,,,,,,
09 Kennedylaan 95.8 ri A50,Oost-Brabant,Eindhoven,Eindhoven,51.492221,5.48381,Ja,,x,,,,,,,
09 Kennedylaan 95.8 ri Centrum,Oost-Brabant,Eindhoven,Eindhoven,51.492221,5.48381,Ja,,x,,,,,,,
09 Kennedylaan 95.8 ri Centrum,Oost-Brabant,Eindhoven,Eindhoven,51.492221,5.48381,Ja,,x,,,,,,,
09 Piusln x Leenderwg,Oost-Brabant,Eindhoven,Eindhoven,51.424722,5.493333,Ja,,x,,,,,,,
09 Piusln x Leenderwg,Oost-Brabant,Eindhoven,Eindhoven,51.424722,5.493333,Ja,,x,,,,,,,
09 Leenderweg ri A67,Oost-Brabant,Eindhoven,Eindhoven,51.415099,5.49813,Ja,,x,,,,,,,
09 Leenderweg ri A67,Oost-Brabant,Eindhoven,Eindhoven,51.415099,5.49813,Ja,,x,,,,,,,
09 Leenderweg ri Eindhoven,Oost-Brabant,Eindhoven,Eindhoven,51.415099,5.49813,Ja,,x,,,,,,,
09 Leenderweg ri Eindhoven,Oost-Brabant,Eindhoven,Eindhoven,51.415099,5.49813,Ja,,x,,,,,,,
A31 Re 21.2 Herbijum ri LWRDN,Noord-Nederland,Herbaijum,Waadhoeke,53.196418,5.510267,Ja,,x,,,,,,,
A31 Li 21.2 Franeker ri Harlgn,Noord-Nederland,Franeker,Waadhoeke,53.196805,5.510631,Ja,,x,,,,,,,
09 Doctr Saal van Zwnbrgsingel,Oost-Brabant,Oss,Oss,51.761404,5.515633,Ja,,x,,,,,,,
09 Doctr Saal van Zwnbrgsingel,Oost-Brabant,Oss,Oss,51.761404,5.515633,Ja,,x,,,,,,,
A 2 Li 176.4 Leende,Oost-Brabant,Leende,Heeze-Leende,51.350628,5.541538,Ja,,,,x,,,,,
A 2 Li 176.4 Leende,Oost-Brabant,Leende,Heeze-Leende,51.350628,5.541538,Ja,,,,x,,,,,
A 2 Re 176.4 Leende,Oost-Brabant,Leende,Heeze-Leende,51.350628,5.541538,Ja,,,,x,,,,,
A 2 Re 176.4 Leende,Oost-Brabant,Leende,Heeze-Leende,51.350628,5.541538,Ja,,,,x,,,,,
A 6 Li 91.3 Lelystad N,Midden-Nederland,Lelystad,Lelystad,52.586262,5.552254,Ja,,,,x,,x,,,
A 6 Re 91.3 Lelystad N,Midden-Nederland,Lelystad,Lelystad,52.586156,5.552487,Ja,,,,x,,x,,,
02 Thorbeckeln Afrit A30 B-vld,Oost-Nederland,Barneveld,Barneveld,52.149895,5.566645,,Ja,,x,,x,,x,,x
02 Plantagelaan Rotonde Barnev,Oost-Nederland,Barneveld,Barneveld,52.126218,5.567077,,Ja,,x,,x,,x,,x
09 Mierlosewg ri Geldrop,Oost-Brabant,Geldrop,Geldrop-Mierlo,51.429722,5.573611,Ja,,x,,,,,,,
09 Mierlosewg ri Geldrop,Oost-Brabant,Geldrop,Geldrop-Mierlo,51.429722,5.573611,Ja,,x,,,,,,,
02 v. Geenstr Haverstr,Oost-Nederland,Putten,Putten,52,5.589444,,Ja,,x,,,,x,,x
N305 Gooiseweg ri B-huizen,Midden-Nederland,Zeewolde,Zeewolde,52.40528,5.59253,Ja,,,,x,,x,,,
N305 Gooiseweg Z-wolde/L-stad,Midden-Nederland,Zeewolde,Zeewolde,52.406101,5.593343,Ja,,,,x,,x,,,
A12 Li 104.5 Ede,Oost-Nederland,Ede,Ede,52.033076,5.593561,Ja,,x,,x,,x,,x,
A12 Re 104.5 Ede,Oost-Nederland,Ede,Ede,52.033208,5.594505,Ja,,x,,x,,x,,x,
02 Baron v Nagellstr xBiezerwg,Oost-Nederland,Barneveld,Barneveld,52.17198,5.596131,,Ja,,x,,x,,x,,x
02 Baron v NagellstrxEnergiewg,Oost-Nederland,Onbekend,Onbekend,52.166884,5.598251,,Ja,,x,,x,,x,,x
N303 14.7 Harderwijkerstr Teg,Oost-Nederland,Putten,Putten,52.267222,5.614167,Ja,,x,,x,,x,,x,
N270 Europaweg ri Deurne,Oost-Brabant,Helmond,Helmond,51.474167,5.632778,Ja,,,,x,,,,,
N270 Europaweg ri Deurne,Oost-Brabant,Helmond,Helmond,51.474167,5.632778,Ja,,,,x,,,,,
N270 Europaweg x Hortsedijk,Oost-Brabant,Helmond,Helmond,51.47499,5.6337,Ja,,,,x,,,,,
N270 Europaweg x Hortsedijk,Oost-Brabant,Helmond,Helmond,51.47499,5.6337,Ja,,,,x,,,,,
N302 Li 107.8 Harderwijk,Oost-Nederland,Harderwijk,Harderwijk,52.345798,5.644106,Ja,,x,,x,,x,,x,
N302 Re 107.8 Harderwk ri A28,Oost-Nederland,Harderwijk,Harderwijk,52.345798,5.644106,Ja,,x,,x,,x,,x,
09 Heeklaan x Kanaaldk ZW,Oost-Brabant,Helmond,Helmond,51.472777,5.653333,Ja,,x,,,,,,,
09 Heeklaan x Kanaaldk ZW,Oost-Brabant,Helmond,Helmond,51.472777,5.653333,Ja,,x,,,,,,,
09 Kanaaldk ZW x Engelseweg,Oost-Brabant,Helmond,Helmond,51.472778,5.654444,Ja,,x,,,,,,,
09 Kanaaldk ZW x Engelseweg,Oost-Brabant,Helmond,Helmond,51.472778,5.654444,Ja,,x,,,,,,,
N270 Kasteeltrav Stat.str,Oost-Brabant,Helmond,Helmond,51.4775,5.659167,Ja,,,,x,,,,,
N270 Kasteeltrav Stat.str,Oost-Brabant,Helmond,Helmond,51.4775,5.659167,Ja,,,,x,,,,,
10 Via Regia x Dr.Bakstr,Limburg,Maastricht,Maastricht,50.851111,5.668611,Ja,,,,x,,x,,,
10 Brusselseweg ri Belgie,Limburg,Maastricht,Maastricht,50.874722,5.672778,Ja,,,,x,,x,,,
A50 Li 142.5 Bankhoef,Oost-Nederland,Wijchen,Wijchen,51.814657,5.678916,Ja,,x,,x,,x,,x,
A50 Re 142.5 Bankhoef,Oost-Nederland,Wijchen,Wijchen,51.814657,5.678916,Ja,,x,,x,,x,,x,
10 Bosscherweg ri Belgie,Limburg,Maastricht,Maastricht,50.872204,5.682288,Ja,,,,x,,x,,,
10 Bosscherweg ri Maastricht,Limburg,Maastricht,Maastricht,50.872204,5.682288,Ja,,,,x,,x,,,
A 2 Li 272 Maastricht GO NL IN,Limburg,Maastricht,Maastricht,50.760833,5.7025,Ja,,,,x,,x,,,
A 2 Li 272 Maastricht GO NL IN,Limburg,Maastricht,Maastricht,50.760833,5.7025,Ja,,x,,,,,,,
A 2 Re 272 Maastricht GO NLUit,Limburg,Maastricht,Maastricht,50.760833,5.7025,Ja,,,,x,,x,,,
A 2 Re 272 Maastricht GO NLUit,Limburg,Maastricht,Maastricht,50.760833,5.7025,Ja,,x,,,,,,,
A15 Li 150.6 Valburg West,Oost-Nederland,Andelst,Overbetuwe,51.916021,5.710772,Ja,,x,,x,,x,,x,
A15 Re 150.6 Valburg West,Oost-Nederland,Andelst,Overbetuwe,51.916021,5.710772,Ja,,x,,x,,x,,x,
A 2 Li 269.3 Eijsden Patiel,Limburg,Eijsden,Eijsden,50.776389,5.728889,Ja,,,,x,,x,,,
A79 Li 1.9 Meerssen,Limburg,Meerssen,Meerssen,50.87738,5.745482,Ja,,x,,x,,,,,
A79 Re 1.9 Meerssen,Limburg,Meerssen,Meerssen,50.87738,5.745482,Ja,,x,,x,,,,,
A 6 Li 300.3 Oosterzee,Noord-Nederland,Follega,De Fryske Marren,52.873855,5.745493,Ja,,x,,x,,x,,,
10 Beek Vliegvldwg Nw Vliekrwg,Limburg,Beek,Beek,50.900083,5.75584,Ja,,,,x,,x,,,
10 Beek Vliegvldwg ri Luchthvn,Limburg,Beek,Beek,50.900083,5.75584,Ja,,,,x,,x,,,
A76 Li 0.4 Stein GO NL UIT,Limburg,Stein,Stein,50.96,5.758056,Ja,,,,x,,x,,,
A76 Li 0.4 Stein GO NL UIT,Limburg,Stein,Stein,50.96,5.758056,Ja,,x,,,,,,,
A76 Re 0.4 Stein GO NL IN,Limburg,Stein,Stein,50.96,5.758333,Ja,,,,x,,x,,,
A76 Re 0.4 Stein GO NL IN,Limburg,Stein,Stein,50.96,5.758333,Ja,,x,,,,,,,
N280 1.7 Roermondseweg Teg C,Limburg,Weert,Weert,51.2418,5.7619,Ja,,x,,,,,,,
10 Beek Vliegveldweg ri KMAR,Limburg,Beek,Beek,50.915239,5.768211,Ja,,,,x,,x,,,
10 Beek Vliegvldwg ri Meerssen,Limburg,Beek,Beek,50.915239,5.768211,Ja,,,,x,,x,,,
10 Beek Vliegvldwg ri Viaduct,Limburg,Beek,Beek,50.915239,5.768211,Ja,,,,x,,x,,,
10 Beek Vliegvldwg vanaf A2,Limburg,Beek,Beek,50.915239,5.768211,Ja,,,,x,,x,,,
A 6 Re 282.8 Emmeloord,Midden-Nederland,Emmeloord,Noordoostpolder,52.725278,5.771111,Ja,,,,x,,,,,
N310 Arnhemseweg,Oost-Nederland,Otterlo,Ede,52.097778,5.771944,Ja,,x,,x,,x,,x,
A50 Li 164.3 Grijsoord Z,Oost-Nederland,Arnhem,Arnhem,51.988609,5.772758,Ja,,x,,x,,x,,x,
A50 Re 164.3 Grijsoord Z,Oost-Nederland,Arnhem,Arnhem,51.988459,5.773002,Ja,,x,,x,,x,,x,
10 Beek Bamfordweg ri P5,Limburg,Beek,Beek,50.910592,5.77374,Ja,,,,x,,x,,,
10 Beek Europaln ri spotterspl,Limburg,Beek,Beek,50.910592,5.77374,Ja,,,,x,,x,,,
10 Beek Burg.Visschstraat IN,Limburg,Beek,Beek,50.910684,5.773842,Ja,,,,x,,x,,,
10 Beek Burg.Visschstraat UIT,Limburg,Beek,Beek,50.910684,5.773842,Ja,,,,x,,x,,,
10 Beek Vliegvldwg K en R Uit,Limburg,Beek,Beek,50.924181,5.776771,Ja,,,,x,,x,,,
10 Beek Vliegvldwg ri Europaln,Limburg,Beek,Beek,50.924181,5.776771,Ja,,,,x,,x,,,
10 Beek Europaln Airport In,Limburg,Beek,Beek,50.924682,5.779556,Ja,,,,x,,x,,,
10 Beek Europaln Airport Uit,Limburg,Beek,Beek,50.924609,5.780447,Ja,,,,x,,x,,,
A 2 Li 245.4 Beek,Limburg,Beek,Beek,50.933188,5.78182,Ja,,x,,x,,,,,
A 2 Re 245.4 Beek,Limburg,Beek,Beek,50.933188,5.78182,Ja,,x,,x,,,,,
10 Beek Europaln ri Belgielaan,Limburg,Beek,Beek,50.915074,5.783793,Ja,,,,x,,x,,,
10 Beek Europaln ri Portugalln,Limburg,Beek,Beek,50.915074,5.783793,Ja,,,,x,,x,,,
A 2 Li 244.3 Beek,Limburg,Beek,Beek,50.941495,5.787203,Ja,,x,,x,,x,,x,
A 2 Re 244.3 Beek,Limburg,Beek,Beek,50.941495,5.787203,Ja,,x,,x,,x,,x,
10 Stationsstraat thv 71 Teg,Limburg,Beek,Beek,50.943611,5.788333,Ja,,x,,,,,,,
A 2 Re 236.8 Urmond,Limburg,Urmond,Urmond,51.006705,5.794165,Ja,,x,,x,,,,,
A 2 Li 236.8 Urmond,Limburg,Urmond,Urmond,51.006593,5.794277,Ja,,x,,x,,,,,
N294 Urmonderbn xLemmenstr,Limburg,Einighausen,Sittard-Geleen,50.991667,5.805556,Ja,,x,,x,,,,,
N294 Urmonderbn x Veldwg,Limburg,Einighausen,Sittard-Geleen,50.991944,5.8075,Ja,,x,,x,,,,,
A15 Li 158.6 Ressen,Oost-Nederland,Slijk-Ewijk,Overbetuwe,51.892946,5.818094,Ja,,x,,x,,x,,x,
A15 Re 158.6 Ressen,Oost-Nederland,Slijk-Ewijk,Overbetuwe,51.892946,5.818094,Ja,,x,,x,,x,,x,
N326 Graafsewg x Neerb.wg,Oost-Nederland,Nijmegen,Nijmegen,51.828056,5.821389,Ja,,x,,x,,x,,x,
02 Neerbosscheweg,Oost-Nederland,Nijmegen,Nijmegen,51.829444,5.821389,,Ja,,x,,,,x,,x
A76 Li 5.7 Geleen,Limburg,Geleen,Geleen,50.951656,5.82194,Ja,,x,,x,,,,,
A76 Re 5.7 Geleen,Limburg,Geleen,Geleen,50.951656,5.82194,Ja,,,,x,,x,,,
01 LWRDN Aldansdk ri Greunsbr,Noord-Nederland,Leeuwarden,Leeuwarden,53.190627,5.822761,,Ja,,x,,,,,,
N326 Graafsew Neerb.w Grve,Oost-Nederland,Nijmegen,Nijmegen,51.829722,5.823056,Ja,,x,,x,,x,,x,
01 LWRDN Holstmrwg richting PI,Noord-Nederland,Leeuwarden,Leeuwarden,53.191878,5.823654,,Ja,,x,,,,,,
01 LWRDN Holstmrwg vanaf PI,Noord-Nederland,Leeuwarden,Leeuwarden,53.191878,5.823654,,Ja,,x,,,,,,
02 Jonkerbosplein ri Malden,Oost-Nederland,Nijmegen,Nijmegen,51.82532,5.82523,,Ja,,x,,,,x,,x
02 Jonkerbosplein ri Gof,Oost-Nederland,Nijmegen,Nijmegen,51.825278,5.825556,,Ja,,x,,,,x,,x
10 Ittervoorterweg Thorn IN,Limburg,Thorn,Maasgouw,51.167512,5.830865,Ja,,,,,,x,,,
10 Ittervoorterweg Thorn UIT,Limburg,Thorn,Maasgouw,51.167512,5.830865,Ja,,,,,,x,,,
01 LWRDN Greunsburg,Noord-Nederland,Leeuwarden,Leeuwarden,53.192767,5.835468,,Ja,,x,,,,,,
N50 Li 258.2 Kampen,Midden-Nederland,Ens,Noordoostpolder,52.612995,5.841739,Ja,,,,x,,,,,
N50 Re 258.2 Kampen,Midden-Nederland,Ens,Noordoostpolder,52.612995,5.841739,Ja,,,,x,,,,,
N765 Li 21.4 Kampen,Midden-Nederland,Ens,Noordoostpolder,52.612995,5.841739,Ja,,,,x,,,,,
N765 Re 21.4 Kampen,Midden-Nederland,Ens,Noordoostpolder,52.612995,5.841739,Ja,,,,x,,,,,
10 Meers ri Steegputstraat,Limburg,Thorn,Maasgouw,51.161481,5.847455,Ja,,,,,,x,,,
10 Meers ri Wessem,Limburg,Thorn,Maasgouw,51.161481,5.847455,Ja,,,,,,x,,,
N275 Venloseweg thv 18 Teg C,Limburg,Ospel,Nederweert,51.310833,5.858611,Ja,,x,,,,,,,
N326 Oranjesingel,Oost-Nederland,Nijmegen,Nijmegen,51.8425,5.865556,Ja,,x,,x,,x,,x,
N326 x V. Schevichavenstraat,Oost-Nederland,Nijmegen,Nijmegen,51.842765,5.866285,Ja,,x,,x,,x,,x,
N278 X Molenweg ri Vaals,Limburg,Gulpen,Gulpen-Wittem,50.81379,5.88819,Ja,,x,,x,,,,,
02 Batavierenweg x Eldenseweg,Oost-Nederland,Arnhem,Arnhem,51.965833,5.890556,,Ja,,x,,,,x,,x
02 Matsersngl x Gron.sngl,Oost-Nederland,Arnhem,Arnhem,52,5.892778,,Ja,,x,,,,x,,x
N325 Pleijwg x Nijmeegsewg LA,Oost-Nederland,Arnhem,Arnhem,51.9625,5.898056,Ja,,x,,x,,x,,x,
N325 Pleijwg x Nijmeegsewg RD,Oost-Nederland,Arnhem,Arnhem,51.9625,5.898056,Ja,,x,,x,,x,,x,
02 Nijmeegseweg x Gel.Rooslaan,Oost-Nederland,Arnhem,Arnhem,51.969167,5.905556,,Ja,,x,,,,x,,x
N278 x Partijerweg ri Vaals,Limburg,Wittem,Gulpen-Wittem,50.811667,5.913889,Ja,,x,,x,,x,,,
02 Velperb.sngl x Steenstr,Oost-Nederland,Arnhem,Arnhem,51.982778,5.914167,,Ja,,x,,x,,x,,x
N278 x Wit. Allee ri MSTRCHT,Limburg,Wittem,Gulpen-Wittem,50.81156,5.91526,Ja,,x,,,,,,,
A 1 Li 79.8 Apeldoorn W,Oost-Nederland,Apeldoorn,Apeldoorn,52.181641,5.917701,Ja,,x,,x,,x,,x,
A 1 Re 79.8 Apeldoorn W,Oost-Nederland,Apeldoorn,Apeldoorn,52.181641,5.917701,Ja,,x,,x,,x,,x,
A32 Li 46.1 Heerenveen,Noord-Nederland,Heerenveen,Heerenveen,52.960556,5.9375,Ja,,x,,x,,,,x,
A32 Re 46.2 Heerenveen,Noord-Nederland,Heerenveen,Heerenveen,52.961071,5.937599,Ja,,x,,x,,,,x,
A50 Li 188.5 Waterberg N,Oost-Nederland,Arnhem,Arnhem,52.068208,5.943568,Ja,,x,,x,,x,,x,
A50 Re 188.5 Waterberg N,Oost-Nederland,Arnhem,Arnhem,52.068208,5.943568,Ja,,x,,x,,x,,x,
N325 Nieuw Rijkswg ri Duitslnd,Oost-Nederland,Berg en Dal,Berg en Dal,51.821954,5.946363,Ja,,x,,x,,x,,x,
N325 Nieuw Rijkswg ri Ubbergen,Oost-Nederland,Berg en Dal,Berg en Dal,51.821954,5.946363,Ja,,x,,x,,x,,x,
02 Lange Water x Lange Wal,Oost-Nederland,Arnhem,Arnhem,51.984167,5.955278,,Ja,,x,,,,x,,x
02 L. Water x Bethanienstr.,Oost-Nederland,Arnhem,Arnhem,51.979444,5.960278,,Ja,,x,,x,,x,,x
02 Arnhemseweg x Ravenweg,Oost-Nederland,Apeldoorn,Apeldoorn,52.194052,5.96238,,Ja,,x,,,,x,,x
N274 Provincialewg ri Brunssum,Limburg,Jabeek,Jabeek,50.978272,5.971896,Ja,,x,,x,,x,,x,
N274 Provincialewg ri DUITSLND,Limburg,Jabeek,Jabeek,50.978272,5.971896,Ja,,x,,,,,,,
N277 Li 52.7 Middenpeelweg,Limburg,Sevenum,Horst aan de Maas,51.378859,5.984261,Ja,,x,,x,,,,,
N277 Re 52.6 Middenpeelweg,Limburg,Sevenum,Horst aan de Maas,51.378859,5.984261,Ja,,x,,x,,,,,
N281 Toerit A76 ri Heerlen,Limburg,Heerlen,Heerlen,50.83298,6.00609,Ja,,,,x,,,,,
N281 Toerit A76 ri Simpelveld,Limburg,Heerlen,Heerlen,50.83478,6.01015,Ja,,,,x,,,,,
A12 Li 137.1 Duiven,Oost-Nederland,Duiven,Duiven,51.964174,6.01083,Ja,,x,,x,,x,,x,
A12 Re 137.1 Duiven,Oost-Nederland,Duiven,Duiven,51.964174,6.01083,Ja,,x,,x,,x,,x,
A76 Re 27.0 Heerlen GO NL UIT,Limburg,Heerlen,Heerlen,50.826389,6.016667,Ja,,,,x,,x,,,
A76 Re 27.0 Heerlen GO NL UIT,Limburg,Heerlen,Heerlen,50.826389,6.016667,Ja,,x,,,,,,,
A76 Li 27.0 Heerlen GO NL IN,Limburg,Heerlen,Heerlen,50.819722,6.023889,Ja,,x,,x,,,,,
A76 Li 27.0 Heerlen GO NL IN,Limburg,Heerlen,Heerlen,50.819722,6.023889,Ja,,x,,,,,,,
A77 Re 10.9 Gennep GO NL Uit,Limburg,Siebengewald,Bergen,51.674722,6.028611,Ja,,,,x,,x,,,
A77 Re 10.9 Gennep GO NL Uit,Limburg,Siebengewald,Bergen,51.674722,6.028611,Ja,,x,,,,,,,
A77 Li 10.9 Gennep GO NL In,Limburg,Siebengewald,Bergen,52,6.032222,Ja,,,,x,,x,,,
A77 Li 10.9 Gennep GO NL In,Limburg,Siebengewald,Bergen,52,6.032222,Ja,,x,,,,,,,
N271 Rijksweg N x Molenweg,Limburg,Swalmen,Roermond,51.23794,6.0446,Ja,,,,x,,,,,
N271 Rijkswg N x Hollestr,Limburg,Swalmen,Roermond,51.23853,6.04514,Ja,,,,x,,,,,
A28 Li 87.4 Zwolle Z,Oost-Nederland,Hattem,Hattem,52.4975,6.049722,Ja,,x,,x,,x,,x,
A28 Re 87.4 Zwolle Z,Oost-Nederland,Hattem,Hattem,52.4975,6.049722,Ja,,x,,x,,x,,x,
02 Hoofdstraat thv 36,Oost-Nederland,De Steeg,Rheden,52.018611,6.059167,,Ja,,x,,,,x,,x
02 Zwolle Hassltrwg LA Blalowg,Oost-Nederland,Zwolle,Zwolle,52.514923,6.0702,,Ja,,x,,,,x,,x
02 Zwolle Hassltrwg RA Blalowg,Oost-Nederland,Zwolle,Zwolle,52.514923,6.0702,,Ja,,x,,,,x,,x
N280 Li 25.0 Roermond GO NL IN,Limburg,Roermond,Roermond,51.200278,6.070278,Ja,,,,x,,x,,,
N280 Li 25.0 Roermond GO NL IN,Limburg,Roermond,Roermond,51.200278,6.070278,Ja,,x,,,,,,,
N280 Re 25 Roermond GO NL UI,Limburg,Roermond,Roermond,51.200278,6.070278,Ja,,,,x,,x,,,
N280 Re 25 Roermond GO NL UI,Limburg,Roermond,Roermond,51.200278,6.070278,Ja,,x,,,,,,,
02 Ringbaan N x Lentemorgen,Oost-Nederland,Zevenaar,Zevenaar,51.938056,6.071944,,Ja,,x,,x,,x,,x
10 Bostrt Swalmn Bruggn NL UIT,Limburg,Swalmen,Roermond,51.230718,6.080325,Ja,,,,,,x,,,
10 Bruggn Bostrt Swalmn NL IN,Limburg,Swalmen,Roermond,51.230718,6.080325,Ja,,,,,,x,,,
A 1 Li 94.3 Deventer,Oost-Nederland,Wilp,Wilp,52.214995,6.110704,Ja,,x,,x,,x,,x,
A 1 Re 94.3 Deventer,Oost-Nederland,Wilp,Wilp,52.214827,6.110833,Ja,,x,,x,,x,,x,
N337 IJsselallee ri Wijhe,Oost-Nederland,Zwolle,Zwolle,52.493957,6.113359,Ja,,x,,x,,x,,x,
N337 IJsselallee ri Kampen,Oost-Nederland,Zwolle,Zwolle,52.493156,6.115048,Ja,,x,,x,,x,,x,
N570 Rothenbach Vlodrop NL IN,Limburg,Vlodrop,Roerdalen,51.140601,6.118783,Ja,,x,,x,,x,,x,
N570 Vlodrop Rothenbach NL UIT,Limburg,Vlodrop,Roerdalen,51.140601,6.118783,Ja,,x,,x,,x,,x,
10 Wezerweg ri Duitsland,Limburg,Bergen,Bergen,51.587019,6.123567,Ja,,,,x,,,,,
10 Wezerweg ri Well,Limburg,Bergen,Bergen,51.587019,6.123567,Ja,,x,,x,,x,,x,
N271 Prov.wg x Kal.wg ri Venlo,Limburg,Tegelen,Tegelen,51.338333,6.151111,Ja,,,,x,,,,,
N271 Prov.wg x Kal.wg Roerm,Limburg,Tegelen,Venlo,51.339167,6.151667,Ja,,,,x,,,,,
A12 Re 149.9 Bergh GO,Oost-Nederland,Babberich,Zevenaar,51.904167,6.159444,Ja,,x,,,,,,,
A12 Re 149.9 Bergh GO,Oost-Nederland,Babberich,Zevenaar,51.904167,6.159444,Ja,,x,,x,,x,,x,
A12 Li 149.9 Bergh GO,Oost-Nederland,Babberich,Zevenaar,51.899444,6.164722,Ja,,x,,,,,,,
A12 Li 149.9 Bergh GO,Oost-Nederland,Babberich,Zevenaar,51.899444,6.164722,Ja,,x,,x,,x,,x,
A74 Li 99.9 Tegelen GO NL UIT,Limburg,Tegelen,Venlo,51.333056,6.169167,Ja,,,,x,,x,,,
A74 Li 99.9 Tegelen GO NL UIT,Limburg,Tegelen,Venlo,51.333056,6.169167,Ja,,x,,,,,,,
A74 Re 99.9 Tegelen GO,Limburg,Tegelen,Venlo,51.333333,6.169167,Ja,,,,x,,x,,,
A74 Re 99.9 Tegelen GO,Limburg,Tegelen,Venlo,51.333333,6.169167,Ja,,x,,,,,,,
10 Weselsewg x Nw Goltenwg,Limburg,Venlo,Venlo,51.38366,6.19452,Ja,,,,x,,,,,
10 Weselsewg x Schoolwg,Limburg,Venlo,Venlo,51.38446,6.19539,Ja,,,,x,,,,,
A28 Li 113.4 Lankhorst Utrecht,Oost-Nederland,Staphorst,Staphorst,52.65665,6.198843,Ja,,x,,x,,x,,x,
A32(A28) Re 114.5 Meppel,Oost-Nederland,Staphorst,Staphorst,52.666166,6.198893,Ja,,,,x,,x,,x,
10 Wes.wg x Toerit A67 Dsburg,Limburg,Venlo,Venlo,51.38831,6.19898,Ja,,,,x,,,,,
10 Weselsewg x Toerit A67 EHVN,Limburg,Venlo,Venlo,51.388925,6.199104,Ja,,,,x,,,,,
A28 Re 115.2 Lankhorst Gro,Oost-Nederland,Staphorst,Staphorst,52.672858,6.2025,Ja,,x,,x,,x,,x,
A67 Re 75.1 Venlo GO NL Uit,Limburg,Venlo,Venlo,51.386111,6.209444,Ja,,,,x,,x,,,
A67 Re 75.1 Venlo GO NL Uit,Limburg,Venlo,Venlo,51.386111,6.209444,Ja,,x,,,,,,,
A67 Li 75.1 Venlo GO NL In,Limburg,Venlo,Venlo,51.384167,6.215833,Ja,,,,x,,x,,,
A67 Li 75.1 Venlo GO NL In,Limburg,Venlo,Venlo,51.384167,6.215833,Ja,,x,,,,,,,
02 Elsepasweg ri Doetinchem,Oost-Nederland,'s-Heerenberg,Montferland,51.868388,6.258652,,Ja,,x,,x,,x,,x
02 Elsepasweg ri Duitsland,Oost-Nederland,'s-Heerenberg,Montferland,51.868388,6.258652,,Ja,,x,,x,,x,,x
N355 Gron.str.wg ri. Zuidhorn,Noord-Nederland,Grijpskerk,Westerkwartier,53.265278,6.305833,Ja,,x,,x,,,,x,
N355 Gron.str.wg ri. Kollum,Noord-Nederland,Grijpskerk,Westerkwartier,53.265278,6.3075,Ja,,x,,x,,,,x,
N372 Noordholt x Oosteinde,Noord-Nederland,Roden,Noordenveld,53.14648,6.4551,Ja,,x,,x,,,,x,
N372 x Roderwolderweg,Noord-Nederland,Roden,Noordenveld,53.1463,6.4566,Ja,,x,,x,,,,x,
A28 Li 141.4 Hoogeveen,Noord-Nederland,Hoogeveen,Hoogeveen,52.712469,6.461997,Ja,,x,,x,,,,x,
A28 Re 141.4 Hoogeveen,Noord-Nederland,Hoogeveen,Hoogeveen,52.719804,6.465017,Ja,,x,,x,,,,x,
N372 x Bunnerveenseweg,Noord-Nederland,Peize,Noordenveld,53.148056,6.481944,Ja,,x,,x,,,,x,
N372 x Roderweg,Noord-Nederland,Peize,Noordenveld,53.148889,6.484722,Ja,,x,,x,,,,x,
A 7 Li 191.9 Groningen W,Noord-Nederland,Groningen,Groningen,53.20396,6.490521,Ja,,x,,x,,x,,,
A 7 Re 191.9 Groningen W,Noord-Nederland,Groningen,Groningen,53.20396,6.490521,Ja,,x,,x,,x,,,
01 Siersteenln ri Friesestrtwg,Noord-Nederland,Groningen,Groningen,53.22662,6.533462,,Ja,,x,,x,,,,x
N370 Friesestraatweg ri A7,Noord-Nederland,Groningen,Groningen,53.22735,6.53375,Ja,,x,,x,,,,x,
N370 Friesestraatweg ri N355,Noord-Nederland,Groningen,Groningen,53.22654,6.53434,Ja,,x,,x,,,,x,
N35 Nijverd.str x Nottermorswg,Oost-Nederland,Wierden,Wierden,52.359722,6.546667,Ja,,x,,x,,x,,x,
N35 Nijverd.str x Vossenboswg,Oost-Nederland,Wierden,Wierden,52.359722,6.547778,Ja,,x,,x,,x,,x,
01 Emmaviad. ri Julianapl,Noord-Nederland,Groningen,Groningen,53.206667,6.562222,,Ja,,x,,x,,,,x
01 Emmaviaduct ri Centrum,Noord-Nederland,Groningen,Groningen,53.206667,6.5625,,Ja,,x,,x,,,,x
N46 12.8 Groningen ri Nrdwolde,Noord-Nederland,Zuidwolde,Het Hogeland,53.262667,6.580997,Ja,,x,,x,,,,x,
N46 12.8 ri Groningen,Noord-Nederland,Zuidwolde,Het Hogeland,53.262667,6.580997,Ja,,x,,x,,,,x,
A 1 Li 133.6 Azelo West,Oost-Nederland,Azelo,Azelo,52.284307,6.588779,Ja,,x,,x,,x,,x,
A 1 Re 133.6 Azelo West,Oost-Nederland,Azelo,Azelo,52.284307,6.588779,Ja,,x,,x,,x,,x,
N360 x Geweideweg,Noord-Nederland,Garmerwolde,Groningen,53.2431,6.6539,Ja,,x,,x,,,,x,
02 Holstln x Weezebeeksngl,Oost-Nederland,Almelo,Almelo,52.3385,7,,Ja,,x,,,,x,,x
A35 Li 48.8 Azelo Noord,Oost-Nederland,Azelo,Azelo,52.321278,6.659941,Ja,,x,,x,,x,,x,
A 1 Re 141.6 Azelo Zuid,Oost-Nederland,Azelo,Azelo,52.308935,6.696785,Ja,,x,,x,,x,,x,
N319 Kottensewg ri Duitsland,Oost-Nederland,Kotten,Winterswijk,51.937721,6.793022,Ja,,x,,x,,x,,x,
N319 Kottensewg ri Winterswijk,Oost-Nederland,Kotten,Winterswijk,51.937721,6.793022,Ja,,x,,x,,x,,x,
N33 52.4 Rijksweg,Noord-Nederland,Siddeburen,Slochteren,53.2461,6.8761,Ja,,x,,x,,,,x,
N33 52.1 Rijksweg,Noord-Nederland,Siddeburen,Midden-Groningen,53.2438,6.8766,Ja,,x,,x,,,,x,
N33 Li 43.0 Veendam,Noord-Nederland,Meeden,Midden-Groningen,53.163035,6.895016,Ja,,x,,x,,,,x,
N33 Re 43.0 Veendam,Noord-Nederland,Meeden,Midden-Groningen,53.163035,6.895016,Ja,,x,,x,,,,x,
02 Kuipersdk x v. Deinseln,Oost-Nederland,Enschede,Enschede,52.20665,6.8956,,Ja,,x,,,,x,,x
N35 76.4 Enschede IN GO,Oost-Nederland,Enschede,Enschede,52.193611,6.961389,Ja,,x,,,,,,,
N35 76.4 Enschede IN GO,Oost-Nederland,Enschede,Enschede,52.193611,6.961389,Ja,,x,,x,,x,,x,
N35 76.4 Enschede UIT GO,Oost-Nederland,Enschede,Enschede,52.193611,6.961389,Ja,,x,,,,,,,
N35 76.4 Enschede UIT GO,Oost-Nederland,Enschede,Enschede,52.193611,6.961389,Ja,,x,,x,,x,,x,
A 1 Li 178.3 Oldenzaal GO,Oost-Nederland,Oldenzaal,Oldenzaal,52.313333,7.041944,Ja,,x,,,,,,,
A 1 Li 178.3 Oldenzaal GO,Oost-Nederland,Oldenzaal,Oldenzaal,52.313333,7.041944,Ja,,x,,x,,x,,x,
A 1 Re 178.3 Oldenzaal GO,Oost-Nederland,Oldenzaal,Oldenzaal,52.313333,7.041944,Ja,,x,,,,,,,
A 1 Re 178.3 Oldenzaal GO,Oost-Nederland,Oldenzaal,Oldenzaal,52.313333,7.041944,Ja,,x,,x,,x,,x,
A37 Re 42.1 Zwartemeer GO,Noord-Nederland,Zwartemeer,Emmen,52.7225,7.063333,Ja,,x,,x,,,,x,
A37 Li 42.1 Zwartemeer GO,Noord-Nederland,Zwartemeer,Emmen,52.722778,7.063333,Ja,,x,,x,,,,x,
A 7 Li 253.1 Bunde GO,Noord-Nederland,Bad Nieuwescha,Oldambt,53.180278,7.226111,Ja,,x,,x,,x,,,
A 7 Re 253.1 Bunde GO,Noord-Nederland,Bad Nieuwescha,Oldambt,53.180278,7.226111,Ja,,x,,x,,x,,,
